name,ditensity,lat,lon,,
ชุมชนเย็นอากาศ 2,หนาแน่นมาก,100.551283,13.711385,,
ชุมชนเชื้อเพลิงพัฒนา,หนาแน่นปานกลาง,100.553059,13.711026,,
ชุมชนร่วมพัฒนาเชื้อเพลิง 2,หนาแน่นปานกลาง,100.550467,13.708045,,
ชุมชนคลองขวาง,หนาแน่นปานกลาง,100.549118,13.707035,,
ชุมชนวัดช่องลม,หนาแน่นปานกลาง,100.547879,13.705881,,
ชุมชนสามัคคีร่วมใจ,หนาแน่นปานกลาง,100.544914,"13.698283,",,
ชุมชนคาลเท็กซ์,หนาแน่นปานกลาง,100.547088,13.695886,,
ชุมชนร่วมพัฒนาวัดช่องนนทรี,หนาแน่นมาก,100.545899,13.691406,,
ชุมชนบัวหลวง,หนาแน่นมาก,100.544795,13.689569,,
ชุมชนซอยสรรค์สุข,หนาแน่นมาก,100.538901,13.689384,,
ชุมชนวัดคลองภูมิ,หนาแน่นมาก,100.545812,13.680135,,
ชุมชนข้างซอยพัฒนาการ 1,หนาแน่นมาก,100.529237,13.683741,,
ชุมชนปรีชา 1,หนาแน่นปานกลาง,100.534203,13.682538,,
ชุมชนเศตะพราหมณ์,หนาแน่นมาก,100.535409,13.683638,,
ชุมชนโสณมัยอร่ามดวง,หนาแน่นปานกลาง,100.529416,13.694608,,
ชุมชนคลองด่าน,หนาแน่นมาก,100.539026,13.676719,,
ชุมชนปากคลองช่องนนทรี,หนาแน่นปานกลาง,100.549166,13.694497,,
ชุมชนหลังสมาคมโรงเรียนไทย-ญี่ปุ่น,หนาแน่นปานกลาง,100.592733,13.761373,,
ชุมชนซอยรุ่งเรืองตอนปลาย,หนาแน่นมาก,100.575952,13.796208,,
ชุมชนริมคลองบางซื่อรัชดาภิเษก,หนาแน่นมาก,100.574986,13.796861,,
ชุมชนริมคลองบางซื่อ ลาดพร้าว 42-44,หนาแน่นมาก,100.581255,13.798157,,
ชุมชนริมคลองบางซื่อ ลาดพร้าว 46,หนาแน่นปานกลาง,100.584875,13.798909,,
ชุมชนลาดพร้าว 45,หนาแน่นปานกลาง,100.588808,13.800219,,
ชุมชนร่วมใจพิบูลย์ 2,หนาแน่นมาก,100.587864,13.79764,,
ชุมชนบึงพระราม 9 พัฒนา,หนาแน่นปานกลาง,100.601798,13.752611,,
ชุมชนบึงพระราม 9,หนาแน่นปานกลาง,100.602933,13.750966,,
ชุมชนซอยพัทลุง,หนาแน่นมาก,100.58383,13.795314,,
ชุมชนลาดพร้าว 80,หนาแน่นปานกลาง,100.5925,13.779798,,
ชุมชนริมคลองลาดพร้าว ประชาอุทิศ,หนาแน่นปานกลาง,100.594198,13.765709,,
ชุมชนเพชรบุรี 40,หนาแน่นปานกลาง,100.580957,13.745035,,
ชุมชนเพชรพระราม,หนาแน่นปานกลาง,100.598688,13.743708,,
ชุมชนโรงปูนฝั่งเหนือ,หนาแน่นปานกลาง,100.592457,13.745246,,
ชุมชนโรงปูนฝั่งใต้,หนาแน่นปานกลาง,100.592212,13.74442,,
ชุมชนหลังวัดบุญรอดธรรมาราม,หนาแน่นปานกลาง,100.592774,13.693814,,
ชุมชนหน้าวัดบุญรอดธรรมราม,หนาแน่นปานกลาง,100.593547,13.694148,,
ชุมชนหน้าโรงเรียนบางจาก,หนาแน่นปานกลาง,100.596642,13.695749,,
ชุมชนสุภาพงษ์,หนาแน่นมาก,100.635604,13.68974,,
ชุมชนฤกษ์เที่ยง,หนาแน่นปานกลาง,100.610885,13.701686,,
ชุมชนสุขุมวิท 93,หนาแน่นปานกลาง,100.610085,13.700371,,
ชุมชนสาหร่ายทองคำ,หนาแน่นมาก,100.612882,13.701217,,
ชุมชนซอยเปี่ยมสุข,หนาแน่นปานกลาง,100.611717,13.700953,,
ชุมชนพงษ์เวชอนุสรณ์,หนาแน่นปานกลาง,100.606668,13.690522,,
ชุมชนข้างโรงกลั่นน้ำมันบางจาก,หนาแน่นปานกลาง,100.595894,13.691559,,
ชุมชนเล็กเที่ยง,หนาแน่นปานกลาง,100.598859,13.700481,,
ชุมชนซอยประดับสุข,หนาแน่นปานกลาง,100.610367,13.692329,,
ชุมชนสองพี่น้อง,หนาแน่นปานกลาง,100.616684,13.69376,,
ชุมชนร่วมสามัคคี,หนาแน่นปานกลาง,100.630323,13.68662,,
ชุมชนเชลียง 5,หนาแน่นปานกลาง,100.632778,13.681397,,
ชุมชนเซ่งไพเราะ,หนาแน่นมาก,100.63541,13.690878,,
ชุมชนหมู่บ้านซอยสวัสดี,หนาแน่นมาก,100.632077,13.691128,,
ชุมชนสาหร่ายไพเราะ,หนาแน่นปานกลาง,100.630551,13.6932,,
ชุมชนเกตุไพเราะ 1-2,หนาแน่นปานกลาง,100.62996,13.69396,,
ชุมชนเกตุไพเราะ 3-5,หนาแน่นปานกลาง,100.629501,13.694981,,
ชุมชนสุนทรธรรม,หนาแน่นปานกลาง,100.628779,13.696282,,
ชุมชนแย้มสรวล,หนาแน่นปานกลาง,100.626358,13.684036,,
ชุมชนทุ่งสาธิต,หนาแน่นปานกลาง,100.636359,13.692252,,
ชุมชนเยี่ยมเจริญสุข,หนาแน่นปานกลาง,100.61775,13.702976,,
ชุมชนบุญกุศล,หนาแน่นปานกลาง,100.617853,13.686051,,
ชุมชนประวิทย์สามัคคี,หนาแน่นมาก,100.634251,13.683375,,
ชุมชนท่าวัง,หนาแน่นปานกลาง,100.489268,13.753056,,
ชุมชนท่าเตียน,หนาแน่นปานกลาง,100.490732,13.745581,,
ชุมชนตรอกเขียนนิวาสน์-ตรอกไก่แจ้,หนาแน่นปานกลาง,100.496032,13.763373,,
ชุมชนวัดสังเวชวิศยาราม,หนาแน่นปานกลาง,100.49665,13.765144,,
ชุมชนวัดสามพระยา,หนาแน่นปานกลาง,100.499881,13.764961,,
ชุมชนวัดนรนาถ,หนาแน่นปานกลาง,100.502514,13.769852,,
ชุมชนวัดอินทรวิหาร,หนาแน่นปานกลาง,100.503594,13.767225,,
ชุมชนตรอกบ้านพานถม,หนาแน่นปานกลาง,100.504187,13.761454,,
ชุมชนมัสยิดบ้านตึกดิน,หนาแน่นปานกลาง,100.500366,13.758108,,
ชุมชนหลังวัดราชนัดดา,หนาแน่นมาก,100.504559,13.754414,,
ชุมชนวัดเทพธิดาราม,หนาแน่นมาก,100.502945,13.753563,,
ชุมชนโบสถ์พราหมณ์,หนาแน่นมาก,100.500294,13.752482,,
ชุมชนราชบพิธพัฒนา,หนาแน่นมาก,100.499161,13.749821,,
ชุมชนตรอกเฟื่องทอง-ตรอกวิสูตร,หนาแน่นมาก,100.499567,13.748385,,
ชุมชนมัสยิดจักรพงษ์,หนาแน่นปานกลาง,100.49709,13.761267,,
ชุมชนบวรรังษี,หนาแน่นปานกลาง,100.500777,13.758762,,
ชุมชนตรอกศิลป์-ตรอกตึกดิน,หนาแน่นมาก,100.501053,13.754832,,
ชุมชนแพร่งภูธร,หนาแน่นมาก,100.496913,13.751731,,
ชุมชนวัดโสมนัส,หนาแน่นมาก,100.509818,13.761908,,
ชุมชนจักรพรรดิพงษ์,หนาแน่นมาก,100.509353,13.75717,,
ชุมชนวัดสุนทรธรรมทาน,หนาแน่นมาก,100.510211,13.757752,,
ชุมชนศุภมิตร 2,หนาแน่นมาก,100.511743,13.758943,,
ชุมชนศุภมิตร 1,หนาแน่นมาก,100.512863,13.758813,,
ชุมชนสิตาราม,หนาแน่นมาก,100.51064,13.755709,,
ชุมชนมัสยิดมหานาค,หนาแน่นมาก,100.515871,13.752959,,
ชุมชนวัดสระเกศ,แออัด,100.508533,13.752509,,
ชุมชนบ้านบาตร,หนาแน่นมาก,100.506848,13.750943,,
ชุมชนบ้านดอกไม้,หนาแน่นปานกลาง,100.506895,13.74847,,
ชุมชนวังแดง,หนาแน่นปานกลาง,100.504817,13.747747,,
ชุมชนตรอกมะขาม,หนาแน่นมาก,100.512401,13.741809,,
ชุมชนดำรงรักษ์,หนาแน่นมาก,100.511471,13.754851,,
ชุมชนวุฒิชัย,หนาแน่นมาก,100.514999,13.755865,,
ชุมชนภิรมย์,หนาแน่นปานกลาง,100.501029,13.740521,,
ชุมชนสะพานหัน,หนาแน่นปานกลาง,100.502217,13.74281,,
ชุมชนริมคลองโอ่งอ่าง,หนาแน่นปานกลาง,100.50267,13.743545,,
ชุมชนอิสรานุภาพ,หนาแน่นปานกลาง,100.507064,13.739964,,
ชุมชนมิตรชัยภูมิ,หนาแน่นปานกลาง,100.507703,13.739305,,
ชุมชนกรมภูธเรศร์,หนาแน่นปานกลาง,100.509678,13.742026,,
ชุมชนพิพากษา,หนาแน่นปานกลาง,100.51051,13.741064,,
ชุมชนผู้ค้าอะไหล่เก่า,หนาแน่นปานกลาง,100.512321,13.733529,,
ชุมชนวานิชสัมพันธ์,หนาแน่นปานกลาง,100.513793,13.730395,,
ชุมชนตลาดน้อย,หนาแน่นปานกลาง,100.511811,13.734578,,
ชุมชนจงสวัสดิ์,หนาแน่นมาก,100.514964,13.73363,,
ชุมชนโปลิศสภา,หนาแน่นมาก,100.515317,13.736416,,
ชุมชนพาดสาย,หนาแน่นมาก,100.509545,13.738747,,
ชุมชนตรอกโพธิ์,หนาแน่นปานกลาง,100.511203,13.738866,,
ชุมชนกุศลสามัคคี,หนาแน่นปานกลาง,100.507283,13.742572,,
ชุมชนโชฎึก,หนาแน่นมาก,100.515337,13.734419,,
ชุมชนซอยวัดม่วงแคและมัสยิดฮารูณ,หนาแน่นปานกลาง,100.515425,13.725354,,
ชุมชนซอยไวตี,หนาแน่นมาก,100.524615,13.72363,,
ชุมชนซอยพิพัฒน์ 2,หนาแน่นมาก,100.532274,13.725547,,
ชุมชนซอยสันติภาพ,หนาแน่นปานกลาง,100.52514,13.729493,,
ชุมชนตรอกขุนนาวา,หนาแน่นมาก,100.524802,13.733814,,
ชุมชนซอยจอมสมบูรณ์,หนาแน่นปานกลาง,100.524286,13.734115,,
ชุมชนซอยสองพระ,หนาแน่นปานกลาง,100.523484,13.73297,,
ชุมชนซอยพระนคเรศ,หนาแน่นปานกลาง,100.521975,13.735084,,
ชุมชนตรอกห้านาย,หนาแน่นมาก,100.517515,13.735674,,
ชุมชนศรีเวียง,แออัด,100.517637,13.719242,,
ชุมชนตลาดสดเพชรพลอย,หนาแน่นปานกลาง,100.519857,13.728114,,
ชุมชนซอยหลังวัดหัวลำโพง,หนาแน่นปานกลาง,100.529562,13.731082,,
ชุมชนซอยวัดมหาพฤฒาราม(ซอยแก้วฟ้า),หนาแน่นมาก,100.516821,13.734012,,
ชุมชนหลังวัดแก้วแจ่มฟ้า(สี่พระยา),หนาแน่นมาก,100.518856,13.731965,,
ชุมชนบ้านครัวใต้,หนาแน่นมาก,100.523707,13.74986,,
ชุมชนวัดบรมนิวาส,หนาแน่นปานกลาง,100.521071,13.751268,,
ชุมชนชาวชูชีพ,หนาแน่นปานกลาง,100.518361,13.748998,,
ชุมชนตรอกสลักหิน,หนาแน่นมาก,100.518109,13.74029,,
ชุมชนหลังวัดปทุมวนาราม,หนาแน่นปานกลาง,100.537384,13.749128,,
ชุมชนซอยพระเจน,หนาแน่นปานกลาง,100.546676,13.731048,,
ชุมชนพัฒนาบ่อนไก่,หนาแน่นมาก,100.550462,13.72462,,
ชุมชนเคหะชุมชนบ่อนไก่,หนาแน่นปานกลาง,100.552131,13.726191,,
ชุมชนซอยโปโล,หนาแน่นปานกลาง,100.549878,13.732941,,
ชุมชนซอยร่วมฤดี,หนาแน่นปานกลาง,100.549845,13.734229,,
ชุมชนอาเซี่ยน,หนาแน่นปานกลาง,100.53757,13.796652,,
ชุมชนอุทัยรัตน์,หนาแน่นมาก,100.544543,13.796143,,
ชุมชนถวัลย์ศักดิ์,หนาแน่นมาก,100.545545,13.795775,,
ชุมชนวัดไผ่ตัน,หนาแน่นมาก,100.547818,13.795865,,
ชุมชนอินทามระ 1 (ลับแล),หนาแน่นมาก,100.551303,13.795429,,
ชุมชนอินทามระ 29 แยก 1,หนาแน่นมาก,100.558642,13.794505,,
ชุมชนอินทามระ 29 แยก 4,หนาแน่นมาก,100.560467,13.794257,,
ชุมชนเป็นสุข,หนาแน่นมาก,100.556514,13.784344,,
ชุมชนวัดมะกอกกลางสวน,หนาแน่นปานกลาง,100.535315,13.770893,,
ชุมชนบุญชูศรี,หนาแน่นปานกลาง,100.54857,13.769674,,
ชุมชนสุขสวัสดิ์,หนาแน่นปานกลาง,100.535167,13.772047,,
ชุมชนวัดมะกอกส่วนหน้า,หนาแน่นมาก,100.534823,13.769764,,
ชุมชนท่าน้ำสามเสน,หนาแน่นปานกลาง,100.506138,13.783544,,
ชุมชนซอยสีคาม,หนาแน่นปานกลาง,100.509858,13.785142,,
ชุมชนหลังบ้านมนังคศิลา,หนาแน่นมาก,100.518698,13.75442,,
ชุมชนข้างวัดสุคันธาราม,หนาแน่นปานกลาง,100.522346,13.777572,,
ชุมชนซอยสันติสุข,หนาแน่นปานกลาง,100.521854,13.781627,,
ชุมชนวัดน้อยนพคุณ,หนาแน่นปานกลาง,100.522501,13.783065,,
ชุมชนซอยโซดา,หนาแน่นปานกลาง,100.513872,13.780118,,
ชุมชนซอยราชพัสดุ,หนาแน่นปานกลาง,100.514354,13.786817,,
ชุมชนพัฒนาซอยสินทรัพย์,หนาแน่นปานกลาง,100.528123,13.78942,,
ชุมชนพัฒนาซอยระนองกลาง,หนาแน่นปานกลาง,100.530365,13.790886,,
ชุมชนชาวบางกระบือ 14,หนาแน่นปานกลาง,100.515459,13.789702,,
ชุมชนถนนสุคันธาราม,หนาแน่นปานกลาง,100.523407,13.775801,,
ชุมชนวัดเทวราชกุญชร,หนาแน่นปานกลาง,100.501824,13.772519,,
ชุมชนวัดโบสถ์สามเสน,หนาแน่นปานกลาง,100.511056,13.782278,,
ชุมชนริมทางรถไฟสายแปดริ้ว,หนาแน่นปานกลาง,100.520133,13.75663,,
ชุมชนวัดญวน-คลองลำปัก,หนาแน่นปานกลาง,100.517257,13.757516,,
ชุมชนวัดประชาระบือธรรม 3,หนาแน่นปานกลาง,100.523308,13.792119,,
ชุมชนวัดประชาระบือธรรม 2,หนาแน่นปานกลาง,100.522802,13.792533,,
ชุมชนวัดประชาระบือธรรม 4,หนาแน่นปานกลาง,100.523377,13.792992,,
ชุมชนวัดประชาระบือธรรม 1,หนาแน่นปานกลาง,100.522778,13.793595,,
ชุมชนซอยเสริมสุข,หนาแน่นปานกลาง,100.522852,13.779579,,
ชุมชนชาววัดราชา,หนาแน่นปานกลาง,100.506043,13.774521,,
ชุมชนสุโขทัย ซอย 9(1),หนาแน่นปานกลาง,100.521281,13.773589,,
ชุมชนพระยาประสิทธิ์,หนาแน่นปานกลาง,100.514114,13.782399,,
ชุมชนซอยมิตรอนันต์,หนาแน่นปานกลาง,100.527374,13.778477,,
ชุมชนวัดสวัสดิวารีสีมาราม,หนาแน่นปานกลาง,100.516236,13.782013,,
ชุมชนองค์การทอผ้า,หนาแน่นปานกลาง,100.518536,13.797925,,
ชุมชนท่าวาสุกรี,หนาแน่นปานกลาง,100.502177,13.774712,,
ชุมชนสวนอ้อย,หนาแน่นปานกลาง,100.509882,13.779553,,
ชุมชนศรีย่าน ซอย 3,หนาแน่นปานกลาง,100.51371,13.785192,,
ชุมชนนครไชยศรี,หนาแน่นปานกลาง,100.515254,13.781809,,
ชุมชนราชผาทับทิมร่วมใจ,หนาแน่นปานกลาง,100.50384,13.779581,,
ชุมชนวัดสามง่าม,หนาแน่นปานกลาง,100.520454,13.749292,,
ชุมชนทับแก้ว,หนาแน่นปานกลาง,100.589564,13.744427,,
ชุมชนบึงบัว,หนาแน่นมาก,100.630148,13.688731,,
ชุมชนประดิพัทธ์ 10,หนาแน่นมาก,100.54108,13.78925,,
ชุมชนซอยประดิพัทธ์ 11,หนาแน่นมาก,100.541198,13.793087,,
ชุมชนโรงสี,หนาแน่นปานกลาง,100.547634,13.699092,,
ชุมชนริมคลองบางกอกใหญ่,หนาแน่นมาก,100.462216,13.74258,,
ชุมชนวัดเครือวัลย์,หนาแน่นปานกลาง,100.485574,13.746778,,
ชุมชนวัดนาคกลาง,หนาแน่นปานกลาง,100.483976,13.74606,,
ชุมชนลานมะขาม-บ้านหม้อ,หนาแน่นปานกลาง,100.484957,13.744393,,
ชุมชนปรกอรุณ,หนาแน่นมาก,100.487076,13.743549,,
ชุมชนข้างโรงเรียนพณิชยการราชดำเนิน-ธนบุรี,หนาแน่นมาก,100.484232,13.74187,,
ชุมชนวัดหงส์รัตนาราม,หนาแน่นมาก,100.487341,13.740501,,
ชุมชนวัดโมลีโลกยาราม,แออัด,100.489325,13.740662,,
ชุมชนซอยสมบุญพัฒนา,หนาแน่นมาก,100.472836,13.742977,,
ชุมชนวัดดีดวด,หนาแน่นมาก,100.474845,13.741373,,
ชุมชนตรอกตาแทน,หนาแน่นปานกลาง,100.482478,13.73873,,
ชุมชนวัดใหม่วิเชียร,หนาแน่นมาก,100.480869,13.736386,,
ชุมชนหลังวัดใหม่วิเชียร,หนาแน่นมาก,100.479943,13.735491,,
ชุมชนตรอกกระจก,หนาแน่นมาก,100.486172,13.734831,,
ชุมชนวัดสังข์กระจาย,หนาแน่นมาก,100.484994,13.733349,,
ชุมชนซอยจำเนียรสุข 3,หนาแน่นมาก,100.4838,13.72934,,
ชุมชนเพชรเกษม 1,หนาแน่นมาก,100.481625,13.727034,,
ชุมชนรวมพล,หนาแน่นปานกลาง,100.476973,13.72495,,
ชุมชนศาลเจ้าพ่อเขาตก,แออัด,100.472113,13.723491,,
ชุมชนวัดประดู่ฉิมพลี,หนาแน่นปานกลาง,100.468579,13.724689,,
ชุมชนหลังโรงกรองน้ำภาษีเจริญ,หนาแน่นปานกลาง,100.476174,13.733125,,
ชุมชนวัดท่าพระ,หนาแน่นปานกลาง,100.474587,13.734208,,
ชุมชนโค้งกระเทียม,หนาแน่นปานกลาง,100.476308,13.737556,,
ชุมชนหลังโรงเคลือบ,หนาแน่นมาก,100.470124,13.733958,,
ชุมชนข้างโรงเรียนเสสะเวช,หนาแน่นมาก,100.468437,13.736045,,
ชุมชนหลังโรงเรียนเสสะเวช,หนาแน่นมาก,100.468546,13.736494,,
ชุมชนปลายซอยศักดิ์เจริญ,หนาแน่นมาก,100.463527,13.733446,,
ชุมชนวัดใหม่พิเรนทร์,หนาแน่นมาก,100.481185,13.741543,,
ชุมชนสวนหลวง,หนาแน่นปานกลาง,100.483878,13.767794,,
ชุมชนสันติชนสงเคราะห์,หนาแน่นมาก,100.479655,13.763552,,
ชุมชนวัดสุวรรณาราม,หนาแน่นมาก,100.477865,13.761906,,
ชุมชนวัดไชยทิศ,หนาแน่นปานกลาง,100.463323,13.768083,,
ชุมชนวัดรวกสุทธาราม,หนาแน่นมาก,100.466141,13.757915,,
ชุมชนหลังตลาดนครหลวง,หนาแน่นมาก,100.467221,13.754263,,
ชุมชนปลายซอยจรัญสนิทวงศ์ 29 (ฝั่งขวา),หนาแน่นปานกลาง,100.4676,13.750511,,
ชุมชนซอยประชาร่วมใจ,หนาแน่นมาก,100.465967,13.746916,,
ชุมชนตรอกไผ่-วัดบางเสาธง,หนาแน่นมาก,100.468028,13.744295,,
ชุมชนวัดดงมูลเหล็ก,หนาแน่นมาก,100.475664,13.752245,,
ชุมชนวัดพระยาทำ,หนาแน่นมาก,100.48225,13.748145,,
ชุมชนซอยบ้านช่างหล่อ,หนาแน่นมาก,100.481486,13.754778,,
ชุมชนเหนือวัดสีหไกรสร,หนาแน่นมาก,100.479709,13.755203,,
ชุมชนสันติสุข,หนาแน่นมาก,100.479343,13.757733,,
ชุมชนตรอกวังหลัง,หนาแน่นมาก,100.484837,13.755255,,
ชุมชนวัดระฆัง,หนาแน่นมาก,100.484612,13.753103,,
ชุมชนวัดอมรทายิการาม,หนาแน่นมาก,100.47448,13.759502,,
ชุมชนตรอกข้าวเม่า,หนาแน่นมาก,100.47672,13.758495,,
ชุมชนซอยสุดสาคร,หนาแน่นปานกลาง,100.474207,13.756479,,
ชุมชนวัดยางสุทธาราม,หนาแน่นมาก,100.473897,13.75441,,
ชุมชนสายใต้เก่า,หนาแน่นมาก,100.471559,13.753263,,
ชุมชนวัดโพธิ์เรียง,หนาแน่นปานกลาง,100.472268,13.7446,,
ชุมชนวัดอัมพวา,หนาแน่นปานกลาง,100.476121,13.748998,,
ชุมชนวัดครุฑ,หนาแน่นปานกลาง,100.476836,13.745265,,
ชุมชนบุปผาสวรรค์,หนาแน่นปานกลาง,100.466533,13.749417,,
ชุมชนพรพิพัฒน์,หนาแน่นมาก,100.47164,13.757277,,
ชุมชนซอยจรัญสนิทวงศ์ 41,หนาแน่นปานกลาง,100.473356,13.769877,,
ชุมชนมัสยิดหลวงอันซอริซซุนนะห์,หนาแน่นมาก,100.485468,13.761967,,
ชุมชนวัดใหม่ยายแป้น,หนาแน่นปานกลาง,100.473655,13.765169,,
ชุมชนชวนชื่น,หนาแน่นปานกลาง,100.467862,13.769897,,
ชุมชนจรัญ 31 รวมใจ,หนาแน่นปานกลาง,100.465136,13.753828,,
ชุมชนหมู่บ้านพัฒนาหมู่7 แขวงฉิมพลี,หนาแน่นน้อย,100.412687,13.794116,,
ชุมชนสะพานผัก-คลองศาลเจ้า,หนาแน่นน้อย,100.44326,13.796257,,
ชุมชนริมทางรถไฟชัยพฤกษ์,หนาแน่นน้อย,100.458554,13.787166,,
ชุมชนวัดช่างเหล็ก-วัดเรไร,หนาแน่นมาก,100.454001,13.773008,,
ชุมชนริมคลองชักพระ,หนาแน่นปานกลาง,100.466048,13.780711,,
ชุมชนหลังวัดกาญจนสิงหาสน์,หนาแน่นน้อย,100.454202,13.76046,,
ชุมชนหลังวัดรัชฎาธิษฐาน,หนาแน่นน้อย,100.457661,13.755667,,
ชุมชนวัดชัยพฤกษมาลา,หนาแน่นปานกลาง,100.46725,13.794341,,
ชุมชนซอยพฤกษอุดม-วัดน้อยใน,หนาแน่นปานกลาง,100.465556,13.791351,,
ชุมชนวัดกระจัง,หนาแน่นน้อย,100.440754,13.77445,,
ชุมชนวัดมณฑป,หนาแน่นน้อย,100.448702,13.773585,,
ชุมชนหมู่บ้านพัฒนาหมู่ 13 แขวงบางระมาด,หนาแน่นน้อย,100.446033,13.770737,,
ชุมชนวัดจำปา,หนาแน่นน้อย,100.434611,13.773805,,
ชุมชนหมู่บ้านพัฒนาหมู่ 4 แขวงบางระมาด,หนาแน่นน้อย,100.427338,13.771119,,
ชุมชนวัดมะกอก,หนาแน่นน้อย,100.428762,13.775748,,
"ชุมชนหมู่บ้านพัฒนาวัดกาญจนสิงหาสน์ (18,19)",หนาแน่นน้อย,100.447351,13.758046,,
ชุมชนหมู่บ้านพัฒนาหมู่ 6 แขวงบางระมาด,หนาแน่นน้อย,100.431548,13.77505,,
"ชุมชนหมู่ 1,3 บางพรม",หนาแน่นปานกลาง,100.456616,13.744627,,
ชุมชนศาลเจ้าพ่อจุ้ย,หนาแน่นน้อย,100.455536,13.782044,,
ชุมชนศาลาหลังบ้าน,หนาแน่นน้อย,100.450135,13.757075,,
ชุมชนโรงเรียนวัดตลิ่งชัน,หนาแน่นปานกลาง,100.456927,13.780296,,
ชุมชนบ้านลุ่ม,หนาแน่นปานกลาง,100.458691,13.78181,,
ชุมชนหลังวัดปากน้ำฝั่งเหนือ,หนาแน่นมาก,100.460701,13.74665,,
ชุมชนวัดเพลงกลางสวน,หนาแน่นน้อย,100.440621,13.752915,,
ชุมชนวัดสมรโกฏิ-บางระจัน,หนาแน่นน้อย,100.44479,13.773813,,
ชุมชนวัดดาวคะนอง,หนาแน่นปานกลาง,100.48772,13.69625,,
ชุมชนมะนาวหวาน,หนาแน่นมาก,100.486059,13.698207,,
ชุมชนเจริญนคร 66,หนาแน่นมาก,100.486961,13.702331,,
ชุมชนตรอกสะพานยาว,หนาแน่นมาก,100.481366,13.699404,,
ชุมชนโกวบ๊อพัฒนา,หนาแน่นมาก,100.483551,13.704844,,
ชุมชนวัดบางน้ำชน,หนาแน่นปานกลาง,100.49131,13.703434,,
ชุมชนเกื้อวิทยา,หนาแน่นมาก,100.490543,13.708034,,
ชุมชนวัดราชวรินทร์,แออัด,100.492532,13.710769,,
ชุมชนสุทธาราม,แออัด,100.492191,13.713614,,
ชุมชนสนามแดง,แออัด,100.482507,13.71301,,
ชุมชนสองร้อยห้อง,หนาแน่นมาก,100.482406,13.715932,,
ชุมชนวัดบางสะแกใน,หนาแน่นปานกลาง,100.474646,13.711031,,
ชุมชนวัดใหม่ยายนุ้ย,หนาแน่นปานกลาง,100.46923,13.711415,,
ชุมชนสามัคคีธรรม,แออัด,100.472963,13.719124,,
ชุมชนวัดกันตทาราราม,แออัด,100.478029,13.720106,,
ชุมชนหลังศูนย์จันฉิมไพบูลย์,แออัด,100.481581,13.720943,,
ชุมชนโรงเจ 2,หนาแน่นมาก,100.481607,13.7188,,
ชุมชนสายสัมพันธ์,หนาแน่นมาก,100.48739,13.716642,,
ชุมชนวัดกัลยาณ์,หนาแน่นมาก,100.490257,13.739394,,
ชุมชนกุฎีขาว,หนาแน่นมาก,100.488862,13.738047,,
ชุมชนวัดบุปผาราม,แออัด,100.491452,13.735782,,
ชุมชนวัดประยูรวงศ์,หนาแน่นมาก,100.495926,13.737408,,
ชุมชนกุฎีจีน,หนาแน่นมาก,100.493637,13.739043,,
ชุมชนโรงคราม,แออัด,100.488141,13.736431,,
ชุมชนศรีภูมิ,หนาแน่นมาก,100.4863,13.728672,,
ชุมชนวัดใหญ่ศรีสุพรรณ,แออัด,100.488166,13.729554,,
ชุมชนสามัคคีศรีสุพรรณ,แออัด,100.489118,13.730441,,
ชุมชนมัสยิดบ้านสมเด็จ,แออัด,100.492029,13.730687,,
ชุมชนบางไส้ไก่บ้านสมเด็จ,แออัด,100.490041,13.731923,,
ชุมชนวัดประดิษฐาราม,หนาแน่นมาก,100.487655,13.734318,,
ชุมชนสี่แยกบ้านแขก,หนาแน่นมาก,100.493685,13.730578,,
ชุมชนประสานมิตร,แออัด,100.488973,13.728854,,
ชุมชนข้างสถานีรถไฟวงเวียนใหญ่,หนาแน่นมาก,100.486817,13.724751,,
ชุมชนวัดอินทาราม,หนาแน่นมาก,100.483559,13.723035,,
ชุมชนตรอกเทวดา,หนาแน่นมาก,100.490065,13.725112,,
ชุมชนสวนพลู,แออัด,100.487746,13.721985,,
ชุมชนตากสินสัมพันธ์,หนาแน่นมาก,100.488684,13.72059,,
ชุมชนพัฒนาบ้านล่าง,หนาแน่นมาก,100.48576,13.723517,,
ชุมชนหลังไปรษณีย์สำเหร่,แออัด,100.491728,13.715954,,
ชุมชนแซ่ซิ้มสวนบน,หนาแน่นมาก,100.486529,13.717497,,
ชุมชนซอยช่างนาค-สะพานยาว,หนาแน่นมาก,100.499702,13.733711,,
ชุมชนสวนสมเด็จย่า,หนาแน่นปานกลาง,100.497972,13.737012,,
ชุมชนซอยท่าดินแดง 14 และซอยท่าดินแดง 16,หนาแน่นปานกลาง,100.504763,13.735493,,
ชุมชนหลังโรงเรียนสารพัดช่างธนบุรี,หนาแน่นมาก,100.506473,13.734341,,
ชุมชนซอยแยกถนนเชียงใหม่,หนาแน่นปานกลาง,100.50761,13.73477,,
ชุมชนวัดทองธรรมชาติ,หนาแน่นมาก,100.50533,13.73287,,
ชุมชนชาวประชาท่าดินแดง,หนาแน่นมาก,100.502121,13.73064,,
ชุมชนหลังโรงเรียนกุลสิริเทคโนโลยี,หนาแน่นมาก,100.503601,13.731,,
ชุมชนหลังโรงพยาบาลสมเด็จเจ้าพระยา,หนาแน่นมาก,100.50421,13.72962,,
ชุมชนวัดทองนพคุณ,หนาแน่นมาก,100.507731,13.732352,,
ชุมชนหลังโรงภาพยนตร์ไทยราม่า,หนาแน่นปานกลาง,100.493254,13.724314,,
ชุมชนศาลเจ้าอาเหนียว,หนาแน่นมาก,100.494305,13.722225,,
ชุมชนมัสยิดสุวรรณภูมิ,หนาแน่นมาก,100.510194,13.725318,,
ชุมชนซอยวัดสุวรรณ,หนาแน่นมาก,100.510183,13.723707,,
ชุมชนข้างโรงเรียนมิตรพลพณิชยการ,หนาแน่นมาก,100.506878,13.727723,,
ชุมชนหน้าตลาดศิรินทร์,หนาแน่นมาก,100.507964,13.725802,,
ชุมชนคลองต้นไทร,หนาแน่นมาก,100.504523,13.719376,,
ชุมชนวัดเศวตฉัตร,หนาแน่นปานกลาง,100.506684,13.71352,,
ชุมชนอู่ใหม่,หนาแน่นปานกลาง,100.507757,13.714924,,
ชุมชนปากคลองต้นไทร,หนาแน่นปานกลาง,100.509636,13.718639,,
ชุมชนซอยราษฎร์ร่วมเจริญ,หนาแน่นมาก,100.50454,13.722096,,
ชุมชนซอยวนาวรรณ,หนาแน่นมาก,100.503173,13.723111,,
ชุมชนวัดสุทธาราม,แออัด,100.49419,13.711989,,
ชุมชนหลังตลาดเจริญนคร,หนาแน่นปานกลาง,100.499639,13.708742,,
ชุมชนคลองพระยาเกษม,หนาแน่นมาก,100.501731,13.714201,,
ชุมชนซอยวัฒนา,หนาแน่นมาก,100.494996,13.716473,,
ชุมชนสำปาย้าพัฒนา,หนาแน่นมาก,100.496384,13.717765,,
ชุมชนซอยหงษ์ทอง,แออัด,100.494035,13.719399,,
ชุมชนวัดทองเพลง,หนาแน่นมาก,100.500966,13.724042,,
ชุมชนซอยเจริญรัถ 12,หนาแน่นมาก,100.501456,13.726198,,
ชุมชนตรอกงูเห่า,หนาแน่นมาก,100.496566,13.723526,,
ชุมชนสองร้อยห้อง,หนาแน่นมาก,100.49712,13.722726,,
ชุมชนซอยเจริญนคร 24/1,หนาแน่นมาก,100.50439,13.716621,,
ชุมชนซอยเกษมใหม่,หนาแน่นมาก,100.497956,13.712332,,
ชุมชนซอยเจริญรัถ 5,หนาแน่นมาก,100.504433,13.727638,,
ชุมชนฟื้นนครร่มเกล้า ระยะ 2 โซน 9,หนาแน่นน้อย,100.731811,13.759729,,
ชุมชนฟื้นนครร่มเกล้า ระยะ 4 โซน 10,หนาแน่นน้อย,100.728463,13.763192,,
ชุมชนมิตรประชาร่วมใจฟื้นนครร่มเกล้า ระยะ 6 ( โซน 12),หนาแน่นน้อย,100.731667,13.76403,,
ชุมชนฟื้นนครร่มเกล้า ระยะ 1 โซน 7,หนาแน่นปานกลาง,100.733685,13.767342,,
ชุมชนมิตรสามัคคีฟื้นนครร่มเกล้า ระยะ 5 โซน 11,หนาแน่นน้อย,100.734904,13.769483,,
ชุมชนฟื้นนครร่มเกล้า ระยะ 3 โซน 8,หนาแน่นน้อย,100.738162,13.769805,,
ชุมชนน่าฟีอะห์ลำนายโส,หนาแน่นน้อย,100.729656,13.773948,,
ชุมชนจิตรา,หนาแน่นน้อย,100.723291,13.731664,,
ชุมชนร่มเกล้า 1,หนาแน่นน้อย,100.728621,13.730921,,
ชุมชนหลังวัดลานบุญ,หนาแน่นน้อย,100.72199,13.727938,,
ชุมชนหมู่บ้านลานบุญ,หนาแน่นน้อย,100.720957,13.725149,,
ชุมชนซอยธรรมนูญ,หนาแน่นน้อย,100.711602,13.720464,,
ชุมชนวัดสังฆราชา,หนาแน่นน้อย,100.73768,13.725365,,
ชุมชนประชาร่วมใจ,หนาแน่นน้อย,100.7487,13.725547,,
ชุมชนร่วมใจพัฒนา,หนาแน่นน้อย,100.756443,13.725875,,
ชุมชนมิตรปลูกศรัทธา,หนาแน่นน้อย,100.768995,13.724732,,
ชุมชนบึงบัว,หนาแน่นน้อย,100.777806,13.766122,,
ชุมชนมาเรียลัย,หนาแน่นน้อย,100.795917,13.723061,,
ชุมชนวัดพลมานีย์,หนาแน่นน้อย,100.819806,13.717299,,
ชุมชนวัดราชโกษา,หนาแน่นน้อย,100.847609,13.698462,,
ชุมชนดารุ้ลมุกีมอุปถัมภ์,หนาแน่นน้อย,100.842877,13.707054,,
ชุมชนเลียบคลองมอญ,หนาแน่นน้อย,100.815281,13.732405,,
ชุมชนวัดสุทธาโภชน์สุนทรอุปถัมภ์,หนาแน่นน้อย,100.825768,13.731493,,
ชุมชนหมู่บ้านพัฒนาหมู่ 11 (คลองเจ๊ก),หนาแน่นน้อย,100.823558,13.746115,,
ชุมชนหมู่บ้านพัฒนาทิพพาวาส,หนาแน่นน้อย,100.803342,13.779199,,
ชุมชนสุทธาวาส,หนาแน่นน้อย,100.803443,13.738495,,
ชุมชนหมู่บ้านทิวไผ่พัฒนา,หนาแน่นน้อย,100.80445,13.766993,,
ชุมชนมิตรสัมพันธ์ หมู่ 9 (ลำปลาทิว),หนาแน่นน้อย,100.803321,13.765567,,
ชุมชนหมู่บ้านพัฒนา หมู่ 12 (ลำพะอง),หนาแน่นน้อย,100.830144,13.752259,,
ชุมชนหมู่บ้านพัฒนา หมู่ 13 (ลำคูเวียง),หนาแน่นน้อย,100.829633,13.758051,,
ชุมชนบำรุงรื่น,หนาแน่นน้อย,100.755075,13.745152,,
ชุมชนหลวงพรต-ท่านเลี่ยม,หนาแน่นน้อย,100.784282,13.725639,,
ชุมชนเคหะชุมชนร่มเกล้าแฟลตคลองสองต้นนุ่น(แฟลต 11 หลัง),หนาแน่นน้อย,100.735563,13.772039,,
ชุมชนเคหะชุมชนร่มเกล้า โซน หลังคาขาว,หนาแน่นน้อย,100.730365,13.77199,,
ชุมชนเคหะชุมชนร่มเกล้า โซน 6,หนาแน่นปานกลาง,100.735089,13.763048,,
ชุมชนเคหะชุมชนร่มเกล้า โซน 5,หนาแน่นน้อย,100.735004,13.764583,,
ชุมชนเคหะชุมชนร่มเกล้า โซน หลังคาเขียว,หนาแน่นน้อย,100.73489,13.766616,,
ชุมชนเคหะชุมชนร่มเกล้า โซน 3,หนาแน่นน้อย,100.731637,13.766954,,
ชุมชนเคหะชุมชนร่มเกล้า โซน 201 หลังคาแดง,หนาแน่นน้อย,100.72968,13.767897,,
ชุมชนเคหะชุมชนร่มเกล้า โซน 1,หนาแน่นน้อย,100.733571,13.772966,,
ชุมชนเคหะชุมชนร่มเกล้า โซน 2,หนาแน่นปานกลาง,100.73103,13.770472,,
ชุมชนเคหะชุมชนร่มเกล้า โซน 4,หนาแน่นน้อย,100.734674,13.765131,,
ชุมชนรามอินทราเนรมิต,หนาแน่นน้อย,100.711134,13.809328,,
ชุมชนอิดซ์ฮาร์ดพัฒนา,หนาแน่นน้อย,100.766287,13.83022,,
ชุมชนราษฎร์พัฒนา(ซอยมูลนิธิ),หนาแน่นน้อย,100.769286,13.826657,,
ชุมชนคลองตะโหนด,หนาแน่นน้อย,100.758801,13.810249,,
ชุมชนทองสงวน,หนาแน่นน้อย,100.798209,13.812299,,
ชุมชนออมทรัพย์,หนาแน่นน้อย,100.752097,13.789886,,
ชุมชนสามัคคีคลองสองต้นนุ่น,หนาแน่นน้อย,100.73059,13.806457,,
ชุมชนวังทองพัฒนา,หนาแน่นน้อย,100.727688,13.791608,,
ชุมชนนูรุ้ลพัฒนา,หนาแน่นน้อย,100.739835,13.774017,,
ชุมชนอันนูรอยน์ (บึงขวาง),หนาแน่นน้อย,100.759824,13.805156,,
ชุมชนอับดุลรอมาน,หนาแน่นน้อย,100.777417,13.816286,,
ชุมชนมีนบุรีอุปถัมภ์,หนาแน่นน้อย,100.728677,13.809366,,
ชุมชนอนันตสามัคคี,หนาแน่นน้อย,100.776979,13.811933,,
ชุมชนสุเหร่าบ้านเกาะ,หนาแน่นน้อย,100.780414,13.823898,,
ชุมชนคู้ล่างสร้างสรรค์,หนาแน่นน้อย,100.807664,13.852622,,
ชุมชนโซ๊ะมันร่วมพัฒนา,หนาแน่นน้อย,100.7784,13.837096,,
ชุมชนบางชันพัฒนา,หนาแน่นน้อย,100.702638,13.805542,,
ชุมชนแสงวิมาน,หนาแน่นน้อย,100.770758,13.827033,,
ชุมชนอับดุลเลาะ,หนาแน่นน้อย,100.750825,13.786348,,
ชุมชนมัสยิดอัตตั๊กวาพัฒนา (คลองสองต้นนุ่น),หนาแน่นน้อย,100.7369,13.792362,,
ชุมชนบ้านคูคตพัฒนา,หนาแน่นน้อย,100.707255,13.820157,,
ชุมชนสามัคคีธรรม,หนาแน่นน้อย,100.724893,13.802931,,
ชุมชนอัลฮูดา,หนาแน่นน้อย,100.753467,13.791832,,
ชุมชนสามัคคีพัฒนา,หนาแน่นน้อย,100.773369,13.832893,,
ชุมชนอิดซ์ฮาดร์,หนาแน่นน้อย,100.767618,13.828533,,
ชุมชนพัฒนาบึงขวาง,หนาแน่นน้อย,100.743912,13.799654,,
ชุมชนเยรูซาเล็ม,หนาแน่นปานกลาง,100.606547,13.745796,,
ชุมชนโครงการร่วมกันสร้าง,หนาแน่นมาก,100.629989,13.789057,,
ชุมชน101 บึงทองหลาง,หนาแน่นมาก,100.627909,13.794478,,
ชุมชนสุขสันต์ 26,หนาแน่นมาก,100.633221,13.800144,,
ชุมชนสุขเจริญพัฒนา,หนาแน่นปานกลาง,100.630162,13.802822,,
ชุมชนลำสาลี,หนาแน่นปานกลาง,100.650317,13.749154,,
ชุมชนวังโสม,หนาแน่นปานกลาง,100.657712,13.758055,,
ชุมชนวัดกลาง,หนาแน่นมาก,100.634798,13.766403,,
ชุมชนริมคลองกะจะ,หนาแน่นปานกลาง,100.6293,13.749169,,
ชุมชนสามัคคีพัฒนา,หนาแน่นมาก,100.656217,13.76089,,
ชุมชนวังใหญ่,หนาแน่นน้อย,100.674517,13.749128,,
ชุมชนหมู่บ้านพัฒนา หมู่ 8,หนาแน่นปานกลาง,100.616921,13.80337,,
ชุมชนหมู่บ้านเทพทวี,หนาแน่นมาก,100.6340468,13.7913309,,
ชุมชนลำชะล่า (โคกบ่าวสาว),หนาแน่นปานกลาง,100.658239,13.848501,,
ชุมชนหมู่บ้านไปรษณีย์ 65,หนาแน่นปานกลาง,100.650899,13.857797,,
ชุมชนหมู่บ้านพัฒนาคลองหลุมไผ่,หนาแน่นปานกลาง,100.623027,13.846992,,
ชุมชนสามัคคีร่วมใจ,หนาแน่นปานกลาง,100.586647,13.860045,,
ชุมชนรุ่นใหม่พัฒนา,หนาแน่นน้อย,100.587831,13.87425,,
ชุมชนร้อยกรอง,หนาแน่นน้อย,100.587977,13.876159,,
ชุมชนสุขสันต์พัฒนา,หนาแน่นน้อย,100.593313,13.873915,,
ชุมชนบางบัว,หนาแน่นปานกลาง,100.588374,13.866576,,
ชุมชนอุทิศอนุสรณ์,หนาแน่นน้อย,100.596504,13.871499,,
ชุมชนเคหะรามอินทรา,หนาแน่นปานกลาง,100.630998,13.857312,,
ชุมชนวัดอาวุธ,หนาแน่นปานกลาง,100.652896,13.881245,,
ชุมชนเพชรสยาม,หนาแน่นปานกลาง,100.634591,13.884007,,
ชุมชนวัชรปราณี,หนาแน่นปานกลาง,100.648006,13.867896,,
ชุมชนวัดไตรรัตนาราม,หนาแน่นปานกลาง,100.618379,13.850372,,
ชุมชนหมู่บ้านเอี่ยมพานิช,หนาแน่นปานกลาง,100.613896,13.865885,,
ชุมชนยิ่งศิริ,หนาแน่นปานกลาง,100.593649,13.883287,,
ชุมชนร่วมใจพัฒนาเหนือ,หนาแน่นน้อย,100.601827,13.892664,,
ชุมชนซอยน้ำใส,หนาแน่นปานกลาง,100.595795,13.884734,,
ชุมชนหมู่บ้านอนันต์สุขสันต์รุ่น 18-20,หนาแน่นปานกลาง,100.633791,13.881241,,
ชุมชนสุขฤดี,หนาแน่นน้อย,100.650007,13.869759,,
ชุมชนร่วมพัฒนา 33,หนาแน่นน้อย,100.61904,13.878553,,
ชุมชนร่วมใจพัฒนาใต้,หนาแน่นปานกลาง,100.596587,13.880212,,
ชุมชนแผ่นดินทองวัดแสนเกษม,หนาแน่นน้อย,100.892814,13.920358,,
ชุมชนแผ่นดินทองอัลฮิดายะห์,หนาแน่นน้อย,100.849259,13.891726,,
ชุมชนแผ่นดินทองดารุ้ลฮาซานัย,หนาแน่นน้อย,100.839623,13.930653,,
ชุมชนแผ่นดินทองสะฟีรุสซาลาม,หนาแน่นน้อย,100.811146,13.922367,,
ชุมชนแผ่นดินทองวัดสามง่าม,หนาแน่นน้อย,100.807154,13.888659,,
ชุมชนแผ่นดินทองยายชุ่มอุทิศ,หนาแน่นน้อย,100.797893,13.861841,,
ชุมชนแผ่นดินทองบาหยัน 2,หนาแน่นน้อย,100.832734,13.86748,,
ชุมชนแผ่นดินทองอัรเราะห์มาน,หนาแน่นน้อย,100.848288,13.881239,,
ชุมชนแผ่นดินทองดารุสซุนนี,หนาแน่นน้อย,100.847994,13.866498,,
ชุมชนแผ่นดินทองอัลฮุดา,หนาแน่นน้อย,100.860925,13.862931,,
ชุมชนแผ่นดินทองนูรุดดีน,หนาแน่นน้อย,100.880337,13.870588,,
ชุมชนแผ่นดินทองฮาซานุดดีน,หนาแน่นน้อย,100.898328,13.856053,,
ชุมชนแผ่นดินทองภักดีธรรม,หนาแน่นน้อย,100.807896,13.846763,,
ชุมชนแผ่นดินทองคอยรุตตั๊กวา,ไม่ทราบข้อมูล,100.829802,13.833244,,
ชุมชนแผ่นดินทองคอยรุดดีน,หนาแน่นน้อย,100.849457,13.827026,,
ชุมชนแผ่นดินทองหมู่ 5 กระทุ่มราย,หนาแน่นน้อย,100.877518,13.851183,,
ชุมชนแผ่นดินทองอัลฮาดีย์,หนาแน่นน้อย,100.88567,13.849386,,
ชุมชนแผ่นดินทองนูรุ้ลยากีน,หนาแน่นน้อย,100.896984,13.843574,,
ชุมชนแผ่นดินทองดารุ้ลฆอนี,หนาแน่นน้อย,100.911575,13.826115,,
ชุมชนแผ่นดินทองวัดลำผักชี,หนาแน่นน้อย,100.83904,13.788944,,
ชุมชนแผ่นดินทองดารุ้ลนาซีฮะห์,หนาแน่นน้อย,100.858303,13.800941,,
ชุมชนแผ่นดินทองดารุ้ลอะมาน,หนาแน่นน้อย,100.879993,13.783431,,
ชุมชนแผ่นดินทองวัดลำต้อยติ่ง,หนาแน่นน้อย,100.886674,13.753459,,
ชุมชนหมู่บ้านพัฒนา หมู่ 12-13,หนาแน่นน้อย,100.831977,13.906775,,
ชุมชนแผ่นดินทองอินดารุ้ลมีนา,หนาแน่นน้อย,100.887878,13.829367,,
ชุมชนแผ่นดินทองบ้านกระทุ่มราย,หนาแน่นน้อย,100.843337,13.855455,,
ชุมชนแผ่นดินทองออมสินพัฒนา,หนาแน่นน้อย,100.84889,13.855957,,
ชุมชนแผ่นดินทองสุกกาทอง,หนาแน่นน้อย,100.799781,13.851701,,
ชุมชนแผ่นดินทองคู้บนพัฒนา,หนาแน่นน้อย,100.82152,13.8562,,
ชุมชนแผ่นดินทองหมู่ 2 คู้ฝั่งเหนือ(สื่อสันติ),หนาแน่นน้อย,100.815267,13.855641,,
ชุมชนแผ่นดินทองลำมดตะนอยสร้างสรรค์,หนาแน่นน้อย,100.859135,13.787545,,
ชุมชนแผ่นดินทองศิริวังพัฒนา,หนาแน่นน้อย,100.838135,13.80647,,
ชุมชนแผ่นดินทองวัดลำพะอง,หนาแน่นน้อย,100.83696,13.768546,,
ชุมชนแผ่นดินทองวัดพระยาปลา,หนาแน่นน้อย,100.864533,13.914506,,
ชุมชนแผ่นดินทองบิดาย่าตุ้ลฮิดายะห์,หนาแน่นน้อย,100.911608,13.93851,,
ชุมชนแผ่นดินทองดารุ้ลนาอีม,หนาแน่นน้อย,100.790037,13.879245,,
ชุมชนแผ่นดินทองนูรุสลาม,หนาแน่นน้อย,100.818763,13.851713,,
ชุมชนแผ่นดินทองยะมีอุ้ลมุตตะกีน (ลำหินใต้),หนาแน่นน้อย,100.803811,13.82355,,
ชุมชนพัฒนาบ้านแบนใหญ่,หนาแน่นน้อย,100.823906,13.828258,,
ชุมชนแผ่นดินทองนูรุลเอียะซาน,หนาแน่นน้อย,100.832157,13.839298,,
ชุมชนแผ่นดินทองซอลีฮุ้ลมุสลีมีน,หนาแน่นน้อย,100.848683,13.818879,,
ชุมชนแผ่นดินทองนูรุ้ลลอฮ์,หนาแน่นน้อย,100.870489,13.815592,,
ชุมชนแผ่นดินทองดารุ้ลคอยรอต,หนาแน่นน้อย,100.836124,13.854912,,
ชุมชนแผ่นดินทองอัลยามีอะห์,หนาแน่นน้อย,100.837718,13.817237,,
ชุมชนหมู่บ้านเลียบวารี,หนาแน่นน้อย,100.843915,13.856471,,
ชุมชนแผ่นดินทองเจริญดำริ,หนาแน่นน้อย,100.85733,13.842336,,
ชุมชนซอยศาสนา,หนาแน่นน้อย,100.859436,13.845841,,
ชุมชนนาตับสร้างสรรค์,หนาแน่นน้อย,100.80962,13.83373,,
ชุมชนลำตามีพัฒนา,หนาแน่นน้อย,100.876845,13.756262,,
ชุมชนพลังสามัคคี,หนาแน่นปานกลาง,100.598365,13.883778,,
ชุมชนนูรุ้ลอิสลาม(คลองสี่วังเล็ก),หนาแน่นน้อย,100.771952,13.804563,,
ชุมชนแสนสุขพัฒนา,หนาแน่นน้อย,100.735831,13.816013,,
ชุมชนนำไกร หมู่ที่ 9 ทับยาว,หนาแน่นน้อย,100.798958,13.72198,,
ชุมชนเทอดศาสนา,หนาแน่นน้อย,100.736079,13.7205,,
ชุมชนสหกรณ์ 93 คลองสิบ,หนาแน่นน้อย,100.837298,13.912858,,
ชุมชนวัดใหม่เจริญราษฎร์,หนาแน่นน้อย,100.907842,13.897226,,
ชุมชนหมู่ 6 ก้าวหน้า,หนาแน่นน้อย,100.890365,13.918698,,
ชุมชนมิตรไมตรีสัมพันธ์,หนาแน่นน้อย,100.84251,13.859737,,
ชุมชนพัฒนาศาลาร่วมใจ,หนาแน่นน้อย,100.804876,13.855205,,
ชุมชนลานโพธิ์,หนาแน่นมาก,100.482405,13.739544,,
ชุมชนสองแขวง,หนาแน่นปานกลาง,100.46011,13.78037,,
ชุมชนคลองบางน้อย,หนาแน่นปานกลาง,100.452726,13.743244,,
ชุมชนหลังวัดรางบัว,หนาแน่นปานกลาง,100.444908,13.712494,,
ชุมชนหลังวัดปากน้ำฝั่งใต้,หนาแน่นปานกลาง,100.458213,13.743223,,
ชุมชนข้างวัดโตนด,หนาแน่นปานกลาง,100.453988,13.735963,,
ชุมชนข้างวัดบางแวก,หนาแน่นปานกลาง,100.460056,13.736027,,
ชุมชนหลังวัดคูหาสวรรค์,หนาแน่นปานกลาง,100.461759,13.733446,,
ชุมชนแสงหิรัญ,หนาแน่นปานกลาง,100.428407,13.710533,,
ชุมชนคานเรือ,หนาแน่นปานกลาง,100.432103,13.710512,,
ชุมชนเพชรเกษม 56,หนาแน่นปานกลาง,100.431837,13.713459,,
ชุมชนริมคลองราชมนตรี หมู่ 10,หนาแน่นปานกลาง,100.427092,13.719612,,
ชุมชนวัดจันทร์ประดิษฐาราม เขต 1 หมู่ 3,หนาแน่นปานกลาง,100.431237,13.719391,,
ชุมชนเพชรเกษม 58,หนาแน่นปานกลาง,100.433145,13.717204,,
ชุมชนริมคลองราชมนตรี หมู่ 11,หนาแน่นปานกลาง,100.427284,13.712764,,
ชุมชนคลองตาแป้น,หนาแน่นมาก,100.437161,13.708858,,
ชุมชนวัดจันทร์ประดิษฐาราม เขต 2,หนาแน่นปานกลาง,100.438318,13.713477,,
ชุมชนวัดจันทร์ประดิษฐาราม เขต1 หมู่ 1,หนาแน่นปานกลาง,100.43926,13.71838,,
ชุมชนวัดจันทร์ประดิษฐาราม เขต 1 หมู่ 7,หนาแน่นปานกลาง,100.438382,13.720346,,
ชุมชนเจริญวิถี,หนาแน่นปานกลาง,100.416375,13.744405,,
ชุมชนหมู่ 1 คลองขวาง,หนาแน่นปานกลาง,100.426061,13.739059,,
ชุมชนเทพประทาน,หนาแน่นปานกลาง,100.429366,13.727704,,
ชุมชนวัดจันทร์ประดิษฐาราม เขต 3,หนาแน่นปานกลาง,100.442482,13.72067,,
ชุมชนวัดจันทร์ประดิษฐาราม เขต 5,หนาแน่นปานกลาง,100.441287,13.71957,,
ชุมชนเพชรเกษม 42,หนาแน่นปานกลาง,100.453026,13.719784,,
ชุมชนวัดจันทร์ประดิษฐาราม เขต 4,หนาแน่นปานกลาง,100.446894,13.720748,,
ชุมชนวัดรางบัว,หนาแน่นปานกลาง,100.439696,13.711335,,
ชุมชนซอยวัดโคนอน,หนาแน่นปานกลาง,100.454561,13.710492,,
ชุมชนหมู่บ้านพัฒนา หมู่ 7 บางหว้า,หนาแน่นปานกลาง,100.448633,13.709627,,
ชุมชนสุภัทรภิบาล,หนาแน่นปานกลาง,100.449713,13.712667,,
ชุมชนหน้าวัดโคนอน,หนาแน่นปานกลาง,100.454039,13.714311,,
ชุมชนหลังโรงน้ำตาลนิวกว้างสุ้นหลี,หนาแน่นปานกลาง,100.44976,13.715689,,
ชุมชนเพชรเกษม 44,หนาแน่นปานกลาง,100.450177,13.718745,,
ชุมชนนวมประดิษฐ์,หนาแน่นปานกลาง,100.442243,13.73642,,
ชุมชนวิจิตรสัมพันธ์,หนาแน่นมาก,100.460484,13.739512,,
ชุมชนวิจิตรสามัคคี,หนาแน่นมาก,100.461281,13.739835,,
ชุมชนประดิษฐ์เจริญ,หนาแน่นปานกลาง,100.340739,13.680902,,
ชุมชนหมู่ 1 หนองแขม,หนาแน่นปานกลาง,100.364705,13.694684,,
ชุมชนศิริธร,หนาแน่นปานกลาง,100.380555,13.689631,,
ชุมชนนาคสถาพร 2,หนาแน่นปานกลาง,100.374183,13.70223,,
ชุมชนฉัตรชัยเสริมโชค,หนาแน่นน้อย,100.35487,13.735414,,
ชุมชนชายแดน,หนาแน่นน้อย,100.348493,13.735692,,
ชุมชนซอยกำนันวิจิตร,หนาแน่นน้อย,100.337177,13.726562,,
ชุมชนแสงศิริ,หนาแน่นน้อย,100.33867,13.726919,,
ชุมชนหมู่ 4 หนองค้างพลู,หนาแน่นน้อย,100.34476,13.727412,,
ชุมชนหมู่ 3 หนองค้างพลู,หนาแน่นน้อย,100.342076,13.724451,,
ชุมชนวัดวงษ์ลาภาราม,หนาแน่นปานกลาง,100.357994,13.717015,,
ชุมชนรักเจริญ,หนาแน่นน้อย,100.355342,13.716707,,
ชุมชนซอยหล่อพระ,หนาแน่นปานกลาง,100.350154,13.707463,,
ชุมชนซอยเพชรเกษม 108,หนาแน่นปานกลาง,100.352195,13.709517,,
ชุมชนซอยเพชรเกษม 112,หนาแน่นน้อย,100.342456,13.708032,,
ชุมชนสงวนคำ,หนาแน่นน้อย,100.339528,13.702987,,
ชุมชนเลียบคลองมหาศร,หนาแน่นน้อย,100.345992,13.703762,,
ชุมชนซอยเพชรเกษม 77 แยก 1,หนาแน่นปานกลาง,100.358707,13.704097,,
ชุมชนสาครปานสินธุ์,หนาแน่นน้อย,100.366974,13.689875,,
ชุมชนสวัสดิการหนองแขม,หนาแน่นปานกลาง,100.356673,13.698001,,
ชุมชนซอยนาคสถาพร 1,หนาแน่นปานกลาง,100.373079,13.704746,,
ชุมชนซอยต้นสน,หนาแน่นปานกลาง,100.369358,13.705617,,
ชุมชนหรรษา 1,หนาแน่นปานกลาง,100.344651,13.690518,,
ชุมชนซอยโรงงานยากันยุง,หนาแน่นปานกลาง,100.347359,13.696825,,
ชุมชนซอยประสิทธิ์ 4/3,หนาแน่นน้อย,100.365656,13.678249,,
ชุมชนดงรัก,หนาแน่นน้อย,100.349776,13.678156,,
ชุมชนจัดสรร 2,หนาแน่นปานกลาง,100.346854,13.683768,,
ชุมชนตลาดหนองแขม,หนาแน่นปานกลาง,100.341315,13.676518,,
ชุมชนซอยสถิตย์,หนาแน่นปานกลาง,100.345181,13.674307,,
ชุมชน หมู่ 11 แขวงหนองแขม,หนาแน่นน้อย,100.350344,13.669787,,
ชุมชนสะพาน 1,หนาแน่นน้อย,100.346103,13.670833,,
ชุมชนสามัคคีธรรม 4-6,หนาแน่นปานกลาง,100.349455,13.719024,,
ชุมชนเลียบคลองหมื่นแช่ม หมู่ 13,หนาแน่นน้อย,100.366441,13.6846,,
ชุมชนเลียบคลองตาปลั่ง,หนาแน่นน้อย,100.347476,13.678157,,
ชุมชนศาลเจ้าแม่กวนอิม,หนาแน่นปานกลาง,100.347011,13.677334,,
ชุมชนดวงเดือน,หนาแน่นน้อย,100.347647,13.707914,,
ชุมชนหัวป่า,หนาแน่นน้อย,100.445881,13.584501,,
ชุมชนบางกระดี่ หมู่ 9,หนาแน่นน้อย,100.400801,13.593603,,
ชุมชนวัดแสมดำ,หนาแน่นน้อย,100.387765,13.593831,,
ชุมชนเพชรทองคำ,หนาแน่นน้อย,100.403664,13.634484,,
ชุมชนซอยดอกรัก,หนาแน่นน้อย,100.412821,13.622909,,
ชุมชนสามัคคี,หนาแน่นน้อย,100.420185,13.621322,,
ชุมชนวัดสะแกงาม,หนาแน่นน้อย,100.419503,13.628344,,
ชุมชนวัดหัวกระบือ,หนาแน่นน้อย,100.449184,13.617468,,
ชุมชนวัดบัวผัน,หนาแน่นน้อย,100.474806,13.607482,,
ชุมชนหมู่บ้านพัฒนาหมู่ 6,หนาแน่นน้อย,100.470105,13.624316,,
ชุมชนจุลพงษ์,หนาแน่นน้อย,100.440576,13.651991,,
ชุมชนสายสัมพันธ์,หนาแน่นน้อย,100.442754,13.658104,,
ชุมชนซอยนายเจียก,หนาแน่นน้อย,100.443342,13.663451,,
ชุมชนวัดกก,หนาแน่นน้อย,100.449159,13.673003,,
ชุมชนวัดกำแพง,หนาแน่นน้อย,100.446653,13.679793,,
ชุมชนหมู่บ้านเกาะโพธิ์,หนาแน่นน้อย,100.389822,13.575668,,
ชุมชนบางกระดี่หมู่ 2,หนาแน่นน้อย,100.405238,13.602682,,
ชุมชนเชื่อมสัมพันธ์,หนาแน่นน้อย,100.375676,13.618081,,
ชุมชนเคหะชุมชนธนบุรี 1 ส่วน 1,หนาแน่นน้อย,100.418744,13.647339,,
ชุมชนเคหะชุมชนธนบุรี 1 ส่วน 2,หนาแน่นน้อย,100.41946,13.646235,,
ชุมชนคลองใหญ่,หนาแน่นน้อย,100.438559,13.621102,,
ชุมชนหลวงพ่อขาว,ไม่ทราบข้อมูล,100.459675,13.622019,,
ชุมชนทรัพย์สินพัฒนา,หนาแน่นน้อย,100.378193,13.609978,,
ชุมชนบางเพนียง,หนาแน่นน้อย,100.444557,13.563278,,
ชุมชนคลองพิทยาลงกรณ์,หนาแน่นน้อย,100.421456,13.524907,,
ชุมชนศาลเจ้าแม่ทับทิม,หนาแน่นน้อย,100.464637,13.651079,,
ชุมชนซอยศักดิ์มงคลชัย,หนาแน่นน้อย,100.415697,13.634944,,
ชุมชนวัดนาคสี่บาท,หนาแน่นน้อย,100.448229,13.674956,,
ชุมชนวัดประชาบำรุง,หนาแน่นน้อย,100.440317,13.570044,,
ชุมชนชายทะเล-บางขุนเทียน,หนาแน่นน้อย,100.424851,13.509848,,
ชุมชนศรีกุมาร,หนาแน่นน้อย,100.423329,13.514838,,
ชุมชนเสาธง,หนาแน่นน้อย,100.415111,13.509062,,
ชุมชนแสนตอ,หนาแน่นน้อย,100.437432,13.525262,,
ชุมชนคลองรายยายเพียร,หนาแน่นน้อย,100.433369,13.593758,,
ชุมชนหลวงพ่อเต่า,หนาแน่นน้อย,100.444496,13.540462,,
ชุมชนเคหะชุมชนธนบุรี 1 ส่วน 3,หนาแน่นน้อย,100.42202,13.645941,,
ชุมชนเคหะชุมชนธนบุรี 3 โซน 2,หนาแน่นน้อย,100.418034,13.653918,,
ชุมชนเคหะชุมชนธนบุรี 3 โซน 1,หนาแน่นน้อย,100.415579,13.653705,,
ชุมชนเชิงตาแพ,หนาแน่นน้อย,100.420106,13.56,,
ชุมชนคลองสาม,หนาแน่นน้อย,100.431735,13.546881,,
ชุมชนมุ่งพัฒนา,หนาแน่นน้อย,100.432494,13.625351,,
ชุมชนข้างสถานีวิทยุเพื่อการศึกษา,หนาแน่นน้อย,100.425389,13.623277,,
ชุมชนปู่โฉมพัฒนา,หนาแน่นน้อย,100.430824,13.62523,,
ชุมชนศาลาร่วมใจพัฒนา,หนาแน่นปานกลาง,100.493821,13.685415,,
ชุมชนประคองมิตร,หนาแน่นปานกลาง,100.492536,13.686686,,
ชุมชนร่วมใจ,หนาแน่นปานกลาง,100.506129,13.669987,,
ชุมชนรุ่งเรือง,หนาแน่นปานกลาง,100.51316,13.668111,,
ชุมชนหมู่ 7 ราษฎร์บูรณะ,หนาแน่นปานกลาง,100.515025,13.66671,,
ชุมชนสุขสวัสดิ์ 60,หนาแน่นน้อย,100.516677,13.662404,,
ชุมชนแจงร้อน,หนาแน่นปานกลาง,100.517226,13.677501,,
ชุมชนเบอร์ลี่,หนาแน่นปานกลาง,100.50974,13.679,,
ชุมชนสุขสวัสดิ์ 29,หนาแน่นปานกลาง,100.507534,13.677434,,
ชุมชนสุขสวัสดิ์ 31,หนาแน่นปานกลาง,100.505703,13.674097,,
ชุมชนหมู่ 3 ราษฎร์บูรณะ,หนาแน่นปานกลาง,100.50523,13.680986,,
ชุมชนซอยหมอผึ้งอุทิศ,หนาแน่นปานกลาง,100.500904,13.681518,,
ชุมชนสมบูรณ์ทรัพย์,หนาแน่นปานกลาง,100.495813,13.683697,,
ชุมชนสุขสวัสดิ์ 42,หนาแน่นปานกลาง,100.502363,13.674582,,
ชุมชนรวมน้ำใจ,หนาแน่นปานกลาง,100.500908,13.67178,,
ชุมชนสุขสวัสดิ์ 36,หนาแน่นปานกลาง,100.497447,13.67662,,
ชุมชนรัตนจีนะ,หนาแน่นปานกลาง,100.493302,13.670621,,
ชุมชนอนามัย,หนาแน่นปานกลาง,100.494441,13.672121,,
ชุมชนวัดสน,หนาแน่นปานกลาง,100.513659,13.674815,,
ชุมชนมิ่งประชา,หนาแน่นปานกลาง,100.504625,13.681753,,
ชุมชนสุขสวัสดิ์ 9,หนาแน่นปานกลาง,100.488455,13.685898,,
ชุมชนบูรณะสุดเขต,หนาแน่นปานกลาง,100.513733,13.674342,,
ชุมชนบุญมาก,หนาแน่นปานกลาง,100.517216,13.674556,,
ชุมชนรุ่งอรุณ,หนาแน่นปานกลาง,100.484243,13.692356,,
ชุมชนพระยานคร,แออัด,100.514009,13.710868,,
ชุมชนวัดปรก,หนาแน่นมาก,100.522188,13.7121,,
ชุมชนร่วมพัฒนาวรพจน์ 1,แออัด,100.517501,13.709343,,
ชุมชนกิ่งจันทร์,หนาแน่นมาก,100.515604,13.705744,,
ชุมชนบ้านแบบ,หนาแน่นมาก,100.521712,13.715713,,
ชุมชนพัฒนสิน,หนาแน่นมาก,100.53855,13.711327,,
ชุมชนหน้าสมาคมธรรมศาสตร์,หนาแน่นมาก,100.544241,13.718501,,
ชุมชนเซ็นต์หลุยส์ 3,หนาแน่นมาก,100.530796,13.717783,,
ชุมชนมิตรสามัคคี,แออัด,100.516594,13.708529,,
ชุมชนกุศลทอง,หนาแน่นมาก,100.531581,13.713885,,
ชุมชนแสงจันทร์ใน,แออัด,100.52086,13.709912,,
ชุมชนจันทร์ร่ำรวย,แออัด,100.521941,13.708286,,
ชุมชนดอนกุศลร่วมใจ,หนาแน่นมาก,100.521034,13.71281,,
ชุมชนโรงน้ำแข็ง,แออัด,100.526574,13.716653,,
ชุมชนดอนกุศลพัฒนา,แออัด,100.51823,13.713774,,
ชุมชนศรีสุริโยทัย,แออัด,100.516083,13.71523,,
ชุมชนมาตานุสรณ์,หนาแน่นปานกลาง,100.492292,13.697497,,
ชุมชนเชิงสะพานกรุงเทพ,หนาแน่นปานกลาง,100.49731,13.69576,,
ชุมชนหลังโรงพยาบาลเจริญกรุงประชารักษ์,หนาแน่นปานกลาง,100.494948,13.692258,,
ชุมชนซอยวัดอินทร์บรรจง,หนาแน่นปานกลาง,100.50027,13.688948,,
ชุมชนวัดจันทร์ใน,แออัด,100.503739,13.696472,,
ชุมชนวัดลาดบัวขาว,หนาแน่นมาก,100.497657,13.700947,,
ชุมชนเซ่งกี่,หนาแน่นปานกลาง,100.498817,13.702067,,
ชุมชนหลังตลาดเก่าวัดพระยาไกร,หนาแน่นปานกลาง,100.502287,13.704231,,
ชุมชนบางคอแหลม,หนาแน่นมาก,100.502184,13.699008,,
ชุมชนสวนหลวง 1,แออัด,100.503969,13.699509,,
ชุมชนบางอุทิศ,แออัด,100.506698,13.700551,,
ชุมชนวัดพระยาไกร ระยะ 3,หนาแน่นมาก,100.509361,13.701866,,
ชุมชนห้องเย็น,หนาแน่นมาก,100.511866,13.694989,,
ชุมชนบางโคล่,หนาแน่นปานกลาง,100.511992,13.687408,,
ชุมชนโรงแก้ว,หนาแน่นมาก,100.526718,13.696639,,
ชุมชนซอยบุญประทานพร,หนาแน่นมาก,100.515583,13.702853,,
ชุมชนซอยโรงเจ,หนาแน่นมาก,100.511888,13.703831,,
ชุมชนมิตรสัมพันธ์,หนาแน่นมาก,100.512616,13.708504,,
ชุมชนซอยเจริญกรุง 66,หนาแน่นปานกลาง,100.509523,13.710845,,
ชุมชนสวนหลวง 2/วัดราชสิงขร 1,หนาแน่นมาก,100.508025,13.706005,,
ชุมชนซอยเจริญกรุง 89,หนาแน่นมาก,100.50781,13.704983,,
ชุมชนศาลเจ้าแดง,หนาแน่นมาก,100.508826,13.706322,,
ชุมชนร่วมใจพัฒนา,แออัด,100.51246,13.702663,,
ชุมชนหลังสามร้อยห้อง,หนาแน่นมาก,100.507218,13.698859,,
ชุมชนวัดไผ่เงิน,หนาแน่นมาก,100.523259,13.701466,,
ชุมชนเมืองอยู่ดี,แออัด,100.523059,13.701657,,
ชุมชนศาลเจ้าแม่ตะเคียนทอง,หนาแน่นมาก,100.509489,13.702921,,
ชุมชนบาหยัน,หนาแน่นมาก,100.510902,13.70918,,
ชุมชนร่วมมิตรแรงศรัทธา,หนาแน่นน้อย,100.604134,13.896131,,
ชุมชนหลังวัดไผ่เขียว,หนาแน่นน้อย,100.564289,13.916724,,
ชุมชนปู่เจ้าสมิงพรายสะพานปูน,หนาแน่นปานกลาง,100.593466,13.913042,,
ชุมชนประชากร 3,หนาแน่นน้อย,100.594028,13.909204,,
ชุมชนประเสริฐเปรมประชา,หนาแน่นน้อย,100.597446,13.915739,,
ชุมชนพัฒนาตลาดกลาง,หนาแน่นปานกลาง,100.587236,13.917932,,
ชุมชนหน้าท่าอากาศยานด้านใต้,หนาแน่นปานกลาง,100.601377,13.921948,,
ชุมชนพรหมสัมฤทธิ์,หนาแน่นปานกลาง,100.604594,13.928089,,
ชุมชนสะพานปูน,หนาแน่นน้อย,100.595506,13.911344,,
ชุมชนซอยสะพานร่วมใจ,หนาแน่นน้อย,100.620497,13.944771,,
ชุมชนประชากร 4,หนาแน่นปานกลาง,100.59571,13.913851,,
ชุมชนร่วมพัฒนา,หนาแน่นปานกลาง,100.607476,13.933947,,
ชุมชนพัฒนาประชาอุทิศ,หนาแน่นปานกลาง,100.586943,13.924694,,
ชุมชนโชคชัยร่วมมิตร,แออัด,100.564061,13.796007,,
ชุมชนหลังตลาดสุภาพงษ์,หนาแน่นมาก,100.588125,13.803149,,
ชุมชนหลังโรงเจ,หนาแน่นปานกลาง,100.587706,13.823111,,
ชุมชนวังหิน,หนาแน่นปานกลาง,100.58968,13.83272,,
ชุมชนเสนานิคม 2,หนาแน่นปานกลาง,100.587312,13.840128,,
ชุมชนวัดบางบัว,หนาแน่นปานกลาง,100.586759,13.856784,,
ชุมชนประดิษฐ์โทรการ,หนาแน่นปานกลาง,100.58246,13.853887,,
ชุมชนสามัคคีเทวสุนทร,หนาแน่นปานกลาง,100.560447,13.853183,,
ชุมชนประชาร่วมใจ 1,หนาแน่นน้อย,100.557578,13.84608,,
ชุมชนประชาร่วมใจ 2,หนาแน่นปานกลาง,100.552741,13.837384,,
ชุมชนหนองจุฬา,หนาแน่นน้อย,100.544068,13.823293,,
ชุมชนสวนผัก,หนาแน่นปานกลาง,100.548519,13.827157,,
ชุมชนนครหลวง,หนาแน่นมาก,100.580397,13.830483,,
ชุมชนริมคลองลาดพร้าวภาวนา,หนาแน่นปานกลาง,100.588163,13.808294,,
ชุมชนไทรคู่,หนาแน่นน้อย,100.547083,13.822825,,
ชุมชนพหลโยธิน 46,หนาแน่นปานกลาง,100.586448,13.856438,,
ชุมชนคลองน้ำแก้ว,หนาแน่นมาก,100.577761,13.801726,,
ชุมชนคลองพระยาเวิก,หนาแน่นมาก,100.566639,13.801134,,
ชุมชนร่วมสุขพัฒนา,หนาแน่นปานกลาง,100.556641,13.826905,,
ชุมชนพร้อมใจพัฒนา,หนาแน่นน้อย,100.545347,13.821146,,
ชุมชนเคหะสถานเจริญชัย,หนาแน่นปานกลาง,100.54741,13.825506,,
ชุมชนซอยภักดี,หนาแน่นน้อย,100.547267,13.824314,,
ชุมชนพรรณี 1,หนาแน่นน้อย,100.55107,13.825218,,
ชุมชนสันติสุข,หนาแน่นปานกลาง,100.593756,13.803389,,
ชุมชนซอยโรงน้ำแข็ง,หนาแน่นปานกลาง,100.603437,13.802423,,
ชุมชนสุขทรัพย์,หนาแน่นปานกลาง,100.612205,13.825582,,
"ชุมชนหมู่บ้านพัฒนาหมู่ 1, หมู่ 5",หนาแน่นน้อย,100.624915,13.829379,,
ชุมชนหมู่บ้านเนียมกล่ำสามัคคี,หนาแน่นปานกลาง,100.622655,13.842877,,
ชุมชนข้างโรงเรียนสายอักษร,หนาแน่นน้อย,100.640841,13.844851,,
ชุมชนนวลจันทร์,หนาแน่นน้อย,100.639975,13.839536,,
ชุมชนโพธิ์ทอง,หนาแน่นน้อย,100.646926,13.818212,,
ชุมชนอัสลามคลองกุ่ม,หนาแน่นน้อย,100.674385,13.781689,,
ชุมชนซอยรอดอนันต์ 1,หนาแน่นปานกลาง,100.655333,13.774601,,
ชุมชนซอยสมหวัง,หนาแน่นน้อย,100.657743,13.777556,,
ชุมชนสุวรรณประสิทธิ์ 3,หนาแน่นน้อย,100.663377,13.806491,,
ชุมชนสุวรรณประสิทธิ์ 2,หนาแน่นน้อย,100.663034,13.804052,,
ชุมชนสุวรรณประสิทธิ์ 1,หนาแน่นน้อย,100.662791,13.800446,,
ชุมชนเพชรคลองจั่น,หนาแน่นปานกลาง,100.65647,13.774543,,
ชุมชนบางเตยล่าง,หนาแน่นน้อย,100.660626,13.787508,,
ชุมชนเพิ่มทรัพย์,หนาแน่นน้อย,100.652435,13.810113,,
ชุมชนชูสุวรรณ,หนาแน่นปานกลาง,100.656552,13.821522,,
ชุมชนหลังหมู่บ้านฉัตรแก้ว,หนาแน่นมาก,100.643032,13.787148,,
ชุมชนสามัคคีพัฒนา,หนาแน่นน้อย,100.653092,13.787625,,
ชุมชน นปอ.,หนาแน่นน้อย,100.576237,13.942818,,
ชุมชนพหลโยธิน 32,หนาแน่นมาก,100.573058,13.833368,,
ชุมชนหลังกรมวิทยาศาสตร์ทหารบก,หนาแน่นปานกลาง,100.586179,13.846356,,
ชุมชนวัดวิมุตยาราม,หนาแน่นปานกลาง,100.513925,13.8104,,
ชุมชนวัดฉัตรแก้วจงกลณี,หนาแน่นมาก,100.514589,13.80182,,
ชุมชนสงวนทรัพย์,หนาแน่นมาก,100.508748,13.802391,,
ชุมชนพัฒนาซอย 85,หนาแน่นมาก,100.501245,13.79774,,
ชุมชนคลองมะนาว,แออัด,100.501922,13.794327,,
ชุมชนวัดบางพลัด,หนาแน่นมาก,100.499785,13.792562,,
ชุมชนพัฒนาซอย 79,หนาแน่นมาก,100.497848,13.793488,,
ชุมชนวัดรวกบางบำหรุ,แออัด,100.481387,13.783535,,
ชุมชนโค้งถ่าน,หนาแน่นมาก,100.489716,13.767253,,
ชุมชนจรัญวิถี 74,หนาแน่นปานกลาง,100.507325,13.790829,,
ชุมชนริมคลองบางพลัด,หนาแน่นปานกลาง,100.506463,13.790975,,
ชุมชนจรัญสนิทวงศ์ 72,หนาแน่นปานกลาง,100.505303,13.789435,,
ชุมชนสะพานยาว,หนาแน่นปานกลาง,100.503999,13.787966,,
ชุมชนวัดเทพากร,หนาแน่นมาก,100.501829,13.786013,,
ชุมชนวัดภคินีนาถ,หนาแน่นปานกลาง,100.500068,13.78068,,
ชุมชนวัดสิงห์,หนาแน่นมาก,100.495257,13.781835,,
ชุมชนวัดบวรมงคล,หนาแน่นปานกลาง,100.49702,13.77627,,
ชุมชนวัดคฤหบดี,หนาแน่นปานกลาง,100.4965,13.773742,,
ชุมชนบ้านปูน,หนาแน่นปานกลาง,100.49462,13.772208,,
ชุมชนวัดพระยาศิริไอยสวรรค์,หนาแน่นมาก,100.493223,13.769418,,
ชุมชนวัดดาวดึงษาราม,หนาแน่นมาก,100.492363,13.767864,,
ชุมชนคลองเจ้าครุฑ,หนาแน่นปานกลาง,100.491119,13.764356,,
ชุมชนศรีอุลัย,แออัด,100.491206,13.768591,,
ชุมชนมัสยิดบางอ้อ จรัญสนิทวงศ์ 86,หนาแน่นปานกลาง,100.512171,13.796742,,
ชุมชนวัดเทพนารี,หนาแน่นปานกลาง,100.501242,13.784188,,
ชุมชนเจ้าพระยาสยาม,หนาแน่นมาก,100.498651,13.783992,,
ชุมชนสวนปรก,หนาแน่นมาก,100.498696,13.791023,,
ชุมชนดวงดี,หนาแน่นมาก,100.496344,13.794411,,
ชุมชนวัดภาณุรังษี,หนาแน่นมาก,100.497241,13.78836,,
ชุมชนแสงทอง,หนาแน่นปานกลาง,100.504511,13.800617,,
ชุมชนคลองบางพระครู,หนาแน่นมาก,100.500741,13.795766,,
ชุมชนมะพร้าวคู่,หนาแน่นมาก,100.484819,13.781899,,
ชุมชนโค้งมะขาม,หนาแน่นมาก,100.485663,13.78317,,
ชุมชนบ้านญวน,แออัด,100.482366,13.784808,,
ชุมชนวัดเพลง,หนาแน่นน้อย,100.487563,13.795543,,
ชุมชนแก้วกลม,หนาแน่นปานกลาง,100.44004,13.693644,,
ชุมชนวัดสิงห์,หนาแน่นปานกลาง,100.447198,13.68345,,
ชุมชนวาสนา,หนาแน่นปานกลาง,100.452357,13.687703,,
ชุมชนรวมมิตร,หนาแน่นปานกลาง,100.452456,13.68674,,
ชุมชนคุ้งข้าวหลาม,หนาแน่นปานกลาง,100.452716,13.687018,,
ชุมชนบุญอยู่,หนาแน่นปานกลาง,100.453133,13.687319,,
ชุมชนบางระแนะใหญ่,หนาแน่นปานกลาง,100.453315,13.687495,,
ชุมชนอุดมสิน 2,หนาแน่นน้อย,100.462921,13.693137,,
ชุมชนคุณยายวัน,หนาแน่นปานกลาง,100.462929,13.694468,,
ชุมชนโรงพักเก่าบางขุนเทียน,หนาแน่นปานกลาง,100.461941,13.698558,,
ชุมชนวิสุทธิจิตร,หนาแน่นปานกลาง,100.459612,13.701249,,
ชุมชนหมู่บ้านพัฒนา หมู่ 11,หนาแน่นปานกลาง,100.457791,13.700357,,
ชุมชนสุขศิริ,หนาแน่นปานกลาง,100.464297,13.705231,,
ชุมชนซอยสวนหลวง,หนาแน่นปานกลาง,100.463593,13.705888,,
ชุมชนนางนอง 2 สันติสุข,หนาแน่นปานกลาง,100.467981,13.707945,,
ชุมชนศิลปเดช,หนาแน่นปานกลาง,100.473879,13.699862,,
ชุมชนริมคลองบางค้อ,หนาแน่นปานกลาง,100.476678,13.696854,,
ชุมชนวัดมงคลวราราม,หนาแน่นปานกลาง,100.478537,13.695253,,
ชุมชนซอยเทียนทรัพย์,หนาแน่นปานกลาง,100.474316,13.695848,,
ชุมชนชาวสวนสัมพันธ์,หนาแน่นปานกลาง,100.475226,13.689931,,
ชุมชนซอยปลั่งอนุสรณ์,หนาแน่นปานกลาง,100.471956,13.683399,,
ชุมชนป่าแดงพัฒนา,หนาแน่นปานกลาง,100.476529,13.678202,,
ชุมชนวัดนางนอง,หนาแน่นปานกลาง,100.466213,13.703875,,
ชุมชนรวมใจ,หนาแน่นปานกลาง,100.449893,13.681519,,
ชุมชนบ้านสวน,หนาแน่นปานกลาง,100.458682,13.689012,,
ชุมชนมัสยิดนูรุ้ลยากีน,หนาแน่นปานกลาง,100.477758,13.683388,,
ชุมชนโพธิ์แก้ว,หนาแน่นปานกลาง,100.486853,13.682871,,
ชุมชนซอยสุดเขต,หนาแน่นปานกลาง,100.483229,13.686363,,
ชุมชนบางมดพัฒนา หมู่ 7,หนาแน่นปานกลาง,100.468145,13.673643,,
ชุมชนสามง่ามพัฒนา,หนาแน่นน้อย,100.469014,13.684718,,
ชุมชนร่วมพัฒนาเอกชัย 31,หนาแน่นปานกลาง,100.453485,13.688462,,
ชุมชนวัดสีสุก,หนาแน่นปานกลาง,100.464927,13.679043,,
ชุมชนทิพย์สุวรรณ,หนาแน่นปานกลาง,100.471771,13.68492,,
ชุมชนตลาดน้ำวัดไทร,หนาแน่นปานกลาง,100.457605,13.689471,,
ชุมชนสุขสันต์พัฒนาเอกชัย 26,หนาแน่นปานกลาง,100.453287,13.692275,,
ชุมชนซอยชัยวัฒน์ 10,หนาแน่นปานกลาง,100.470902,13.701004,,
ชุมชนวัดบางขุนเทียนนอก,หนาแน่นปานกลาง,100.465473,13.697291,,
ชุมชนหลังตลาดวัดไทร,หนาแน่นปานกลาง,100.456293,13.689721,,
ชุมชนบ้านขิง,หนาแน่นน้อย,100.382834,13.68986,,
ชุมชนมีสุวรรณพัฒนา,หนาแน่นน้อย,100.392519,13.683215,,
ชุมชนคลองยายเทียบฝั่งเหนือ,หนาแน่นปานกลาง,100.419357,13.714024,,
ชุมชนนิมมานรดี,หนาแน่นปานกลาง,100.425404,13.709651,,
ชุมชนยิ้มประยูร,หนาแน่นปานกลาง,100.425174,13.694834,,
ชุมชนเพิ่มทรัพย์,หนาแน่นปานกลาง,100.422457,13.690262,,
ชุมชนหลังโรงเรียนสากลศึกษา,หนาแน่นปานกลาง,100.423034,13.707168,,
ชุมชนคลองยายเทียบฝั่งใต้,หนาแน่นปานกลาง,100.418522,13.71037,,
ชุมชนเลียบคลองทวีวัฒนา,หนาแน่นปานกลาง,100.371439,13.714674,,
ชุมชนวัดพรหมสุวรรณสามัคคี,หนาแน่นปานกลาง,100.368218,13.728591,,
ชุมชนเลียบคลองบางแค,หนาแน่นน้อย,100.391702,13.702821,,
ชุมชนปู่เย็นย่าคำยังอยู่,หนาแน่นน้อย,100.384876,13.703942,, 
ชุมชนเจิมจิตต์,หนาแน่นปานกลาง,100.39026,13.696918,,
ชุมชนชาววัดม่วง,หนาแน่นน้อย,100.392066,13.694276,,
ชุมชนร่วมใจพัฒนา,หนาแน่นน้อย,100.392972,13.69342,,
ชุมชนพุ่มพวง,หนาแน่นปานกลาง,100.414024,13.715528,,
ชุมชนโรงเรียนราชวินิตประถมบางแค,หนาแน่นปานกลาง,100.422347,13.717123,,
ชุมชนรวมใจริมคลอง หมู่ 3,หนาแน่นปานกลาง,100.425317,13.716601,,
ชุมชนงามปัญจะ,หนาแน่นปานกลาง,100.42537,13.691084,,
ชุมชนซอยพึ่งธรรม,หนาแน่นปานกลาง,100.413963,13.710554,,
ชุมชนกระถินทอง,หนาแน่นปานกลาง,100.408837,13.709853,,
ชุมชนทองพูนพัฒนา,หนาแน่นปานกลาง,100.397317,13.746641,,
ชุมชนเจริญแพทย์,หนาแน่นน้อย,100.385204,13.737633,,
ชุมชนนครลุง,หนาแน่นน้อย,100.383054,13.734932,,
ชุมชนศิริเกษม 1,หนาแน่นน้อย,100.357599,13.743733,,
ชุมชนข้างโรงพยาบาลราชพิพัฒน์,หนาแน่นปานกลาง,100.3713,13.73239,,
ชุมชนนครแสงเพชร,หนาแน่นปานกลาง,100.416418,13.719769,,
ชุมชนริมคลองราชมนตรี,หนาแน่นปานกลาง,100.424964,13.715639,,
ชุมชนเกษตรรุ่งเรืองทรัพย์,หนาแน่นน้อย,100.392729,13.69692,,
ชุมชนเคหะชุมชนดินแดง (แฟลต 1 - 20),หนาแน่นมาก,100.553103,13.758512,,
ชุมชนเคหะชุมชนดินแดง (แฟลต 21 - 32),หนาแน่นน้อย,100.550417,13.766776,,
ชุมชนซอยแม่เนี้ยวแยก 2,หนาแน่นมาก,100.559263,13.772631,,
ชุมชนซอยผาสุข,หนาแน่นมาก,100.565806,13.771506,,
ชุมชนซอยแสนสุข,แออัด,100.564324,13.774083,,
ชุมชนซอยเพิ่มสินสมบูรณ์สุข,แออัด,100.562578,13.777075,,
ชุมชนซอยกุนนที,แออัด,100.572212,13.780696,,
ชุมชนซอยสมบูรณ์พัฒนา 2,แออัด,100.564408,13.780465,,
ชุมชนซอยสุพรรณิการ์ 2,แออัด,100.565151,13.781163,,
ชุมชนซอยอินทามระ 55,แออัด,100.569227,13.782662,,
ชุมชนริมคลองบางซื่อซอยโชคชัยร่วมมิตร แยก 2 - 4,แออัด,100.569994,13.795983,,
ชุมชนซอยชานเมือง,แออัด,100.566825,13.770395,,
ชุมชนซอยแม่เนี้ยวแยก 3,หนาแน่นมาก,100.557766,13.77285,,
ชุมชนแจ่มจันทร์,หนาแน่นปานกลาง,100.587549,13.741698,,
ชุมชนคลองเป้ง(ลีลานุช),หนาแน่นปานกลาง,100.586213,13.738151,,
ชุมชนสุเหร่าบ้านดอน,หนาแน่นมาก,100.577469,13.74118,,
ชุมชนข้างสะพานคลองตัน,หนาแน่นปานกลาง,100.599024,13.737077,,
ชุมชนชวาลา,หนาแน่นปานกลาง,100.59623,13.738145,,
ชุมชนนวลจิตร,หนาแน่นมาก,100.594535,13.739042,,
ชุมชนพัฒนาบ้านสามอิน,หนาแน่นมาก,100.597844,13.730033,,
ชุมชนเฉลิมอนุสรณ์,หนาแน่นปานกลาง,100.550672,13.747233,,
ชุมชนหลังสถานีทองหล่อ,หนาแน่นมาก,100.584094,13.735724,,
ชุมชนศาลาลอย,หนาแน่นมาก,100.600642,13.72338,,
ชุมชนมีสุวรรณ 3,หนาแน่นมาก,100.596996,13.716935,,
ชุมชนสุเหร่าบางมะเขือ,หนาแน่นปานกลาง,100.599467,13.715685,,
ชุมชนรื่นฤดี,หนาแน่นปานกลาง,100.550864,13.743205,,
ชุมชนมีสุวรรณ 2,หนาแน่นมาก,100.59754,13.716034,,
ชุมชนเกาะกลาง,หนาแน่นปานกลาง,100.596307,13.709589,,
ชุมชนปิยะวัชร,หนาแน่นมาก,100.593675,13.710286,,
ชุมชนเริ่มเจริญ,หนาแน่นมาก,100.59203,13.705629,,
ชุมชนโรงหมู,หนาแน่นปานกลาง,100.58412,13.707824,,
ชุมชนริมคลองวัดสะพาน,หนาแน่นปานกลาง,100.584354,13.704829,,
ชุมชนคลองเตยล็อค 4-5-6,หนาแน่นมาก,100.576045,13.711076,,
ชุมชนคลองเตยล็อค 1-2-3,หนาแน่นมาก,100.573381,13.7122,,
ชุมชนหมู่บ้านพัฒนา 70 ไร่,หนาแน่นมาก,100.574772,13.709325,,
ชุมชนแฟลต 11-18,หนาแน่นมาก,100.569138,13.709942,,
ชุมชนร่มเกล้า,หนาแน่นมาก,100.567116,13.711195,,
ชุมชนหัวโค้ง,หนาแน่นมาก,100.5692,13.711877,,
ชุมชนแฟลต 1-10,หนาแน่นปานกลาง,100.570682,13.713965,,
ชุมชนน้องใหม่,หนาแน่นปานกลาง,100.568318,13.712794,,
ชุมชนวัดคลองเตยใน 2,หนาแน่นปานกลาง,100.562437,13.710264,,
ชุมชนวัดคลองเตยใน 1,หนาแน่นปานกลาง,100.561806,13.711691,,
ชุมชนตลาดปีนัง,หนาแน่นปานกลาง,100.557726,13.715223,,
ชุมชนพัฒนาเอเซีย,หนาแน่นปานกลาง,100.555058,13.711789,,
ชุมชนริมทางรถไฟสายท่าเรือ,หนาแน่นปานกลาง,100.553932,13.719147,,
ชุมชนตลาดท่าเรือคลองเตย,หนาแน่นปานกลาง,100.561291,13.718523,,
ชุมชนริมคลองสามัคคี,หนาแน่นปานกลาง,100.568798,13.715628,,
ชุมชนพัฒนาใหม่,หนาแน่นปานกลาง,100.564351,13.716235,,
ชุมชนบ้านกล้วย,หนาแน่นมาก,100.575479,13.713208,,
ชุมชนริมคลองพระโขนง,หนาแน่นปานกลาง,100.58914,13.706343,,
ชุมชนแฟลต 19-22,หนาแน่นมาก,100.571577,13.711038,,
ชุมชนข้างโรงเรียนวัดสะพาน,หนาแน่นปานกลาง,100.58755,13.703399,,
ชุมชนสวนอ้อย,หนาแน่นปานกลาง,100.588688,13.701587,,
ชุมชนซอยเจริญสุข,หนาแน่นมาก,100.562989,13.722565,,
ชุมชนนภาศัพท์แยก 4,หนาแน่นมาก,100.575006,13.719808,,
ชุมชนอาคารทรัพย์สิน 26-7,หนาแน่นปานกลาง,100.560971,13.721646,,
ชุมชนแฟลต 23-24,หนาแน่นปานกลาง,100.586845,13.705727,,
ชุมชนร่วมใจสามัคคี,หนาแน่นปานกลาง,100.571429,13.715155,,
ชุมชนวัดคลองเตยใน 3,หนาแน่นปานกลาง,100.561251,13.712176,,
ชุมชนริมคลองไผ่สิงห์โต,หนาแน่นปานกลาง,100.560493,13.720582,,
ชุมชนสวัสดี,หนาแน่นปานกลาง,100.594762,13.70332,,
ชุมชนแสนสบาย-แสนสุข,หนาแน่นมาก,100.574437,13.71766,,
ชุมชนตลาดปีนังพัฒนา,หนาแน่นปานกลาง,100.556901,13.717197,,
ชุมชนสวนไทร,หนาแน่นปานกลาง,100.589432,13.702894,,
ชุมชนทรัพย์มโนทัย,หนาแน่นมาก,100.575945,13.714222,,
ชุมชนกระทุ่มเสือปลา,หนาแน่นน้อย,100.672417,13.719837,,
ชุมชนสุเหร่าจรเข้ขบ,หนาแน่นน้อย,100.696588,13.711533,,
ชุมชนอ่อนนุช 40 ไร่,หนาแน่นน้อย,100.704422,13.71407,,
ชุมชนมัสยิดดอกไม้,หนาแน่นน้อย,100.690311,13.702464,,
ชุมชนริมคลองประเวศ,หนาแน่นน้อย,100.667363,13.72121,,
ชุมชนสุเหร่าทางควาย,หนาแน่นน้อย,100.664541,13.720954,,
ชุมชนเกาะมุสลิม,หนาแน่นน้อย,100.676971,13.717996,,
ชุมชนเทพรักษา,หนาแน่นน้อย,100.670899,13.717438,,
ชุมชนสามัคคีธรรม,หนาแน่นน้อย,100.674551,13.718014,,
ชุมชนบ้านบึง,หนาแน่นน้อย,100.650601,13.710283,,
ชุมชนสุเหร่าบึงหนองบอน,หนาแน่นน้อย,100.652225,13.714187,,
ชุมชนเปรมฤทัย 72-74,หนาแน่นน้อย,100.655055,13.715436,,
ชุมชนมิตรภาพซอย 6,หนาแน่นปานกลาง,100.636584,13.698083,,
ชุมชนทับช้างล่างฝั่งธน,หนาแน่นน้อย,100.685989,13.730456,,
ชุมชนอ่อนนุช 19 ไร่,หนาแน่นน้อย,100.709696,13.71038,,
ชุมชนคลองมอญ,หนาแน่นน้อย,100.668501,13.723519,,
ชุมชนหมู่บ้านพัฒนาศาลาลอย,หนาแน่นน้อย,100.665756,13.700546,,
ชุมชนสุเหร่าคลองเคล็ด (อยู่เป็นสุข),หนาแน่นปานกลาง,100.638856,13.687443,,
ชุมชนเราะห์มาตุ้ลอิสลาม,หนาแน่นน้อย,100.673837,13.699628,,
ชุมชนหมู่บ้านร่มเย็น,หนาแน่นน้อย,100.645908,13.691928,,
ชุมชนริมคลองประเวศฝั่งเหนือ,หนาแน่นน้อย,100.672642,13.72424,,
ชุมชนเกาะเลิ้งสัมพันธ์,หนาแน่นน้อย,100.651201,13.710689,,
ชุมชนหลังสถานีตำรวจเก่าประเวศ,หนาแน่นน้อย,100.6747,13.721529,,
ชุมชนบ้านม้า,หนาแน่นน้อย,100.672147,13.734842,,
ชุมชนร่วมใจพัฒนา,หนาแน่นน้อย,100.661835,13.682293,,
ชุมชนซอยร่มเย็น,หนาแน่นน้อย,100.676759,13.696213,,
ชุมชนเกาะกลาง,หนาแน่นน้อย,100.661859,13.720233,,
ชุมชนวิเศษสุข,หนาแน่นปานกลาง,100.636148,13.744712,,
ชุมชนเอื้ออารีย์,หนาแน่นปานกลาง,100.641494,13.711585,,
ชุมชนหัวหมากเกาะกลาง,หนาแน่นปานกลาง,100.644342,13.737848,,
ชุมชนหมู่บ้านเมืองทอง 2/3,หนาแน่นปานกลาง,100.642922,13.736077,,
ชุมชนประสาทศีล,หนาแน่นปานกลาง,100.606761,13.730336,,
ชุมชนภูมิสุข,หนาแน่นปานกลาง,100.622125,13.710716,,
ชุมชนธรรมานุรักษ์,หนาแน่นปานกลาง,100.636895,13.716116,,
ชุมชนนาคภาษิต,หนาแน่นปานกลาง,100.634059,13.742883,,
ชุมชนหลังสถานีรถไฟหัวหมาก,หนาแน่นปานกลาง,100.636646,13.738244,,
ชุมชนหมู่บ้านเกษมสันต์ 2,หนาแน่นปานกลาง,100.618782,13.726223,,
ชุมชนเจริญพัฒนาถาวร,หนาแน่นปานกลาง,100.62677,13.736999,,
ชุมชนคลองสะแก,หนาแน่นปานกลาง,100.609607,13.736088,,
ชุมชนมุสลิมพัฒนาบ้านป่า,หนาแน่นปานกลาง,100.609087,13.730747,,
ชุมชนแสงสันติ,หนาแน่นปานกลาง,100.607617,13.735202,,
ชุมชนร่วมพัฒนาบ้านป่า,หนาแน่นปานกลาง,100.607119,13.733077,,
ชุมชนหมู่บ้านฮอลลีวู้ด,หนาแน่นปานกลาง,100.610708,13.722462,,
ชุมชนวัดใต้,หนาแน่นปานกลาง,100.603722,13.712586,,
ชุมชนพร้อมใจ,หนาแน่นปานกลาง,100.608338,13.71276,,
ชุมชนอัลเอี๊ยะติซอม,หนาแน่นปานกลาง,100.638727,13.715745,,
ชุมชนโมราวรรณ 1,หนาแน่นปานกลาง,100.645771,13.714191,,
ชุมชนโมราวรรณ 2,หนาแน่นปานกลาง,100.645694,13.712048,,
ชุมชนดารุ้ลอามีน,หนาแน่นปานกลาง,100.643742,13.71056,,
ชุมชนสะและน้อย,หนาแน่นปานกลาง,100.640645,13.711102,,
ชุมชนหลังวัดปากบ่อ,หนาแน่นปานกลาง,100.630318,13.71449,,
ชุมชนอัลกุ๊บรอ,หนาแน่นปานกลาง,100.628697,13.716358,,
ชุมชนหัวป่า,หนาแน่นปานกลาง,100.638393,13.713748,,
ชุมชนคลองจวน,หนาแน่นปานกลาง,100.633766,13.716527,,
ชุมชนดาราฉาย,หนาแน่นน้อย,100.635804,13.70317,,
ชุมชนพัฒนาริมคลองบ้านป่า,หนาแน่นปานกลาง,100.609924,13.731218,,
ชุมชนแหลมทองพัฒนา,หนาแน่นปานกลาง,100.617074,13.729391,,
ชุมชนหมู่บ้านเกษรา-ฐิติพร,หนาแน่นปานกลาง,100.619051,13.740318,,
ชุมชนบ้านพักรถไฟก่อสร้าง,หนาแน่นน้อย,100.540503,13.81017,,
ชุมชนหัวรถจักรตึกแดง เขต 3,หนาแน่นปานกลาง,100.542469,13.81395,,
ชุมชนหัวรถจักรตึกแดง เขต 2,หนาแน่นปานกลาง,100.54334,13.815987,,
ชุมชนหัวรถจักรตึกแดง เขต 1,หนาแน่นน้อย,100.54395,13.817879,,
ชุมชนวัดเลียบ,หนาแน่นปานกลาง,100.520033,13.830418,,
ชุมชนซอยวัดหลวง,หนาแน่นปานกลาง,100.51892,13.82499,,
ชุมชนข้างวัดมัชฌันติการาม,หนาแน่นปานกลาง,100.515414,13.82576,,
ชุมชนสมบุญดี,หนาแน่นมาก,100.517284,13.824729,,
ชุมชนซอยสวนรื่น,หนาแน่นปานกลาง,100.518618,13.821255,,
ชุมชนวัดเสาหิน,หนาแน่นปานกลาง,100.518075,13.818066,,
ชุมชนยิ้มประยูรพัฒนา,หนาแน่นปานกลาง,100.522022,13.820861,,
ชุมชนวัดสร้อยทอง,หนาแน่นปานกลาง,100.520515,13.813669,,
ชุมชนหลังตลาดศรีเขมา,หนาแน่นปานกลาง,100.5225,13.814337,,
ชุมชนซอยสีน้ำเงิน 1,หนาแน่นมาก,100.523034,13.816133,,
ชุมชนเขมาเนรมิตร,หนาแน่นมาก,100.524453,13.815275,,
ชุมชนวัดบางโพโอมาวาส,หนาแน่นปานกลาง,100.52026,13.809272,,
ชุมชนเชิงสะพานพิบูลสงครามฝั่งซ้าย,หนาแน่นปานกลาง,100.51871,13.800585,,
ชุมชนวัดประดู่ธรรมาธิปัตย์,หนาแน่นมาก,100.523443,13.801507,,
ชุมชนซอยประดู่,หนาแน่นมาก,100.527294,13.80043,,
ชุมชนซอยโจ๊ก,หนาแน่นมาก,100.528414,13.801612,,
ชุมชนตรอกตรงข้ามวัดสะพานสูง,หนาแน่นปานกลาง,100.530248,13.800446,,
ชุมชนตรอกต้นมะม่วง,หนาแน่นมาก,100.531278,13.803802,,
ชุมชนจันทร์เกษม,หนาแน่นมาก,100.526205,13.809439,,
ชุมชนเดรี่เบลล์,หนาแน่นมาก,100.52505,13.808087,,
ชุมชนซอยสนิท,หนาแน่นมาก,100.527131,13.807565,,
ชุมชนบุญเหลือ 1,หนาแน่นมาก,100.53012,13.807377,,
ชุมชนบุญเหลือ 2,หนาแน่นมาก,100.529116,13.808062,,
ชุมชนปานทิพย์ 1,หนาแน่นปานกลาง,100.526811,13.825044,,
ชุมชนสุดซอยสมถวิล,หนาแน่นปานกลาง,100.528569,13.822756,,
ชุมชนสะพานไม้,หนาแน่นปานกลาง,100.534027,13.81756,,
ชุมชนสวัสดิรักษา,หนาแน่นปานกลาง,100.533686,13.813248,,
ชุมชนซอยสีน้ำเงิน 2,หนาแน่นมาก,100.521505,13.817319,,
ชุมชนซอยพัฒนา,หนาแน่นมาก,100.528786,13.806258,,
ชุมชนสุขสันต์ 2,หนาแน่นปานกลาง,100.53014,13.821797,,
ชุมชนสุขสันต์ 1,หนาแน่นปานกลาง,100.530912,13.820898,,
ชุมชนศรีบุญยืน,หนาแน่นมาก,100.525396,13.802928,,
ชุมชนบ้านสามเรือน,หนาแน่นปานกลาง,100.528273,13.837285,,
ชุมชนข้างธนาคารอาคารสงเคราะห์,หนาแน่นปานกลาง,100.533827,13.836487,,
ชุมชนซอยโชติวัฒน์,หนาแน่นปานกลาง,100.541321,13.818508,,
ชุมชนศรีบุญยืนพัฒนา,หนาแน่นมาก,100.52537,13.801538,,
ชุมชนหลังตลาดบางซื่อ,หนาแน่นมาก,100.535553,13.800611,,
ชุมชนประชานฤมิตร,หนาแน่นปานกลาง,100.531216,13.821131,,
ชุมชนพัฒนาประชาราษฎร์ 30,หนาแน่นมาก,100.523145,13.811407,,
ชุมชนราชทรัพย์,หนาแน่นปานกลาง,100.518925,13.809648,,
ชุมชนซอยสวนเงิน,หนาแน่นมาก,100.529307,13.769317,,
ชุมชนหน้าวัดมะกอก,หนาแน่นมาก,100.537148,13.766692,,
ชุมชนโค้งรถไฟยมราช,หนาแน่นปานกลาง,100.522181,13.758783,,
ชุมชนซอยแดงบุหงา,หนาแน่นมาก,100.53115,13.75606,,
ชุมชนซอยสุเหร่า (เพชรบุรี 7),หนาแน่นมาก,100.530441,13.755558,,
ชุมชนหลังกรมทางหลวง,หนาแน่นมาก,100.527163,13.75797,,
ชุมชนบ้านครัวเหนือ,หนาแน่นมาก,100.526643,13.750339,,
ชุมชนซอยสมประสงค์ 5,หนาแน่นปานกลาง,100.535393,13.750193,,
ชุมชนริมทางรถไฟหลัง รพ.เดชา,หนาแน่นมาก,100.538726,13.756197,,
ชุมชนริมคลองสามเสน,หนาแน่นปานกลาง,100.557492,13.755066,,
ชุมชนริมทางรถไฟมักกะสัน,หนาแน่นปานกลาง,100.54998,13.750469,,
ชุมชนหลังวัดมักกะสัน,หนาแน่นปานกลาง,100.551433,13.749494,,
ชุมชนนิคมมักกะสัน,หนาแน่นปานกลาง,100.554017,13.749017,,
ชุมชนโรงเจมักกะสัน,หนาแน่นปานกลาง,100.554674,13.748691,,
ชุมชนบ้านครัวตะวันตก,หนาแน่นมาก,100.52477,13.751684,,
ชุมชนคลองส้มป่อย,หนาแน่นมาก,100.521371,13.756238,,
ชุมชนสระแก้ว,หนาแน่นมาก,100.526679,13.759884,,
ชุมชนซอยมั่นสิน,หนาแน่นมาก,100.524706,13.756852,,
ชุมชนสะพานไม้,แออัด,100.490938,13.776071,,
ชุมชนชินศรี 91,หนาแน่นปานกลาง,100.50627,13.802187,,
ชุมชนร่วมใจสามัคคี,หนาแน่นมาก,100.509381,13.800167,,
ชุมชนซอยนาทอง แยก 1-6,แออัด,100.567117,13.777618,,
ชุมชนริมคลองหัวหมากใหญ่,หนาแน่นปานกลาง,100.645658,13.735546,,
ชุมชนโรงหวาย,หนาแน่นปานกลาง,100.605381,13.709632,,
ชุมชนคลองหัวหมาก,หนาแน่นปานกลาง,100.634791,13.732359,,
ชุมชนพัฒนาคลองสะแก,หนาแน่นปานกลาง,100.607732,13.734198,,
ชุมชนจอมทอง,หนาแน่นปานกลาง,100.470745,13.697526,,
ชุมชนศิริเกษมพัฒนา,หนาแน่นน้อย,100.361203,13.737378,,
ชุมชนหลัง สน. เพชรเกษม,หนาแน่นน้อย,100.39209,13.696235,,
ชุมชนวัดปุรณาวาส,หนาแน่นน้อย,100.335843,13.802183,,
ชุมชนหลังสถานีรถไฟศาลาธรรมสพน์,หนาแน่นน้อย,100.37672,13.801003,,
ชุมชนประตูน้ำฉิมพลี,หนาแน่นน้อย,100.394443,13.800357,,
ชุมชนบางพรหมร่วมใจ,หนาแน่นน้อย,100.368713,13.769066,,
ชุมชนคลองเก้าห้อง,หนาแน่นน้อย,100.508638,13.604751,,
ชุมชนหมู่ 5 ทุ่งครุ,หนาแน่นน้อย,100.510366,13.620355,,
ชุมชนหมู่ 6 ทุ่งครุ,หนาแน่นปานกลาง,100.511559,13.620241,,
ชุมชนประชาอุทิศ 68,หนาแน่นน้อย,100.500136,13.634226,,
ชุมชนชมทรัพย์,หนาแน่นน้อย,100.504865,13.643545,,
ชุมชนศรีสมิต,หนาแน่นน้อย,100.499874,13.644319,,
ชุมชนอัตตักวา,หนาแน่นน้อย,100.500005,13.647929,,
ชุมชนหมู่ 5 บางมด,หนาแน่นน้อย,100.4762,13.645204,,
ชุมชนหมู่ 3 บางมด,หนาแน่นน้อย,100.474294,13.653076,,
ชุมชนหมู่ 2 บางมด,หนาแน่นน้อย,100.485565,13.650836,,
ชุมชนบูลไลท์,หนาแน่นน้อย,100.50531,13.653581,,
ชุมชนสามัคคี,หนาแน่นปานกลาง,100.514301,13.646361,,
ชุมชนหลังสวนธนบุรีรมย์,หนาแน่นน้อย,100.4883,13.653094,,
ชุมชนดารีซีน,หนาแน่นน้อย,100.512076,13.643867,,
ชุมชนหลังวัดกลางนา,หนาแน่นน้อย,100.506987,13.657142,,
ชุมชนประชาอุทิศ 43,หนาแน่นน้อย,100.499411,13.652325,,
ชุมชนทุ่งครุพัฒนา,หนาแน่นน้อย,100.511877,13.626362,,
ชุมชนร่วมใจพัฒนา,หนาแน่นน้อย,100.512548,13.658853,,
ชุมชนการเกษตรบ้านนายผล,หนาแน่นน้อย,100.360532,13.640069,,
ชุมชนวัดบางบอน,หนาแน่นน้อย,100.378859,13.642407,,
ชุมชนสถานีรางโพธิ์,หนาแน่นน้อย,100.395111,13.64013,,
ชุมชนซอยสวนผัก,หนาแน่นปานกลาง,100.437703,13.68942,,
ชุมชนริมคลองพระยาราชมนตรี,หนาแน่นน้อย,100.428228,13.686235,,
ชุมชนวัดบางนานอก,หนาแน่นปานกลาง,100.589157,13.675215,,
ชุมชนพูนสวัสดิ์,หนาแน่นปานกลาง,100.59534,13.66553,,
ชุมชนกลางนา,หนาแน่นปานกลาง,100.596419,13.666614,,
ชุมชนร่วมพัฒนา,หนาแน่นปานกลาง,100.598927,13.661404,,
ชุมชนร่วมใจประเสริฐ,หนาแน่นปานกลาง,100.600668,13.662379,,
ชุมชนคลองบางนา,หนาแน่นน้อย,100.645951,13.659226,,
ชุมชนวัดผ่องพลอยอนุสรณ์,หนาแน่นปานกลาง,100.632404,13.655644,,
ชุมชนพึ่งทรัพย์,หนาแน่นปานกลาง,100.621334,13.674875,,
ชุมชนตรงข้ามโรงงานธานินทร์,หนาแน่นปานกลาง,100.617734,13.677168,,
ชุมชนข้างโรงงานธานินทร์,หนาแน่นปานกลาง,100.61842,13.679564,,
ชุมชนรุ่งสว่าง,หนาแน่นปานกลาง,100.594509,13.667979,,
ชุมชนวรรณทอง,หนาแน่นปานกลาง,100.619914,13.663101,,
ชุมชนทองใบ,หนาแน่นปานกลาง,100.620746,13.660695,,
ชุมชนบ้านพักองค์การแบตเตอรี่,หนาแน่นน้อย,100.589992,13.679923,,
ชุมชนบัวเกิด,หนาแน่นปานกลาง,100.616905,13.673289,,
ชุมชนหมู่บ้านจัดสรรยาสูบ,หนาแน่นปานกลาง,100.623288,13.673422,,
ชุมชนพูนสิน,หนาแน่นปานกลาง,100.605218,13.680915,,
ชุมชนรุ่งเรือง,หนาแน่นปานกลาง,100.612164,13.678383,,
ชุมชนหมู่บ้านซอยเชลียง 1,หนาแน่นปานกลาง,100.629439,13.672247,,
ชุมชนเรวัตินิเวศน์ 2,หนาแน่นปานกลาง,100.619754,13.659123,,
ชุมชนซอยโปษยานนท์,หนาแน่นปานกลาง,100.596807,13.662414,,
ชุมชนวงศ์สวัสดิ์,หนาแน่นปานกลาง,100.601653,13.658627,,
ชุมชนหมู่บ้านทิมเรืองเวช,หนาแน่นปานกลาง,100.616515,13.662032,,
ชุมชนซอยผู้ใหญ่ชม,หนาแน่นปานกลาง,100.663283,13.847419,,
ชุมชนซอยประสิทธิชัย,หนาแน่นน้อย,100.656871,13.842628,,
ชุมชนหลวงวิจิตร,หนาแน่นปานกลาง,100.655928,13.836191,,
"ชุมชนหมู่ 6,8 คันนายาว",หนาแน่นน้อย,100.678667,13.849048,,
ชุมชนริมคลองลำเกร็ด,หนาแน่นน้อย,100.680048,13.829618,,
ชุมชนเกาะแครายพัฒนา,หนาแน่นน้อย,100.671734,13.805903,,
ชุมชนนภาพิไลพัฒนา,หนาแน่นน้อย,100.687697,13.790831,,
ชุมชนริมคลองหลอแหล,หนาแน่นน้อย,100.697394,13.795433,,
ชุมชนวิมานสุข,หนาแน่นปานกลาง,100.689906,13.79591,,
ชุมชนบ้านเกาะ,หนาแน่นปานกลาง,100.688853,13.80048,,
ชุมชนเกาะจวน,หนาแน่นน้อย,100.696557,13.79979,,
ชุมชนสยามพัฒนา,หนาแน่นน้อย,100.693208,13.802148,,
ชุมชนริมคลองระหัสพัฒนา,หนาแน่นน้อย,100.678116,13.787288,,
ชุมชนสุเหร่าแดง,หนาแน่นน้อย,100.688292,13.789931,,
ชุมชนหมู่ 11 สะพานสูง (เกาะดอน),หนาแน่นน้อย,100.683088,13.768789,,
ชุมชนหัวบ้านคลองบางเลา,หนาแน่นน้อย,100.708191,13.780359,,
ชุมชนหมู่ 8 สะพานสูง (สุเหร่าซีรอ),หนาแน่นน้อย,100.694558,13.769321,,
ชุมชนวังใหญ่พัฒนา,หนาแน่นน้อย,100.679172,13.750722,,
ชุมชนบ้านม้าเกาะบน,หนาแน่นน้อย,100.674982,13.739528,,
ชุมชนบ้านม้าเกาะล่าง,หนาแน่นน้อย,100.666695,13.738187,,
ชุมชนทับช้างนาลุ่ม,หนาแน่นน้อย,100.691217,13.748017,,
ชุมชนซาอาดะห์,หนาแน่นปานกลาง,100.690202,13.738552,,
ชุมชนคลองทับช้างล่าง,หนาแน่นน้อย,100.687131,13.735587,,
ชุมชนทับช้างคลองบน,หนาแน่นน้อย,100.699642,13.74276,,
ชุมชนหมู่บ้านนักกีฬาแหลมทอง,หนาแน่นน้อย,100.695191,13.745132,,
ชุมชนมัสยิดย่ามีลุ้ลอิบาดะห์(ลาดบัวขาว),หนาแน่นน้อย,100.713633,13.769133,,
ชุมชนสะพานสูง หมู่ 14 พัฒนา,หนาแน่นน้อย,100.705597,13.752063,,
ชุมชนแสงธรรมคลองมณี,หนาแน่นน้อย,100.69327,13.787098,,
ชุมชนวัดลาดบัวขาว (ราชโยธา),หนาแน่นน้อย,100.714309,13.769494,,
ชุมชนคลองเจ็กพัฒนา,หนาแน่นน้อย,100.687048,13.775937,,
ชุมชนสามแยกคลองหลอแหล,หนาแน่นน้อย,100.704419,13.780287,,
ชุมชนวังหนับอุทิศ,หนาแน่นน้อย,100.696623,13.76926,,
ชุมชนแสงมณี,หนาแน่นน้อย,100.692121,13.765938,,
ชุมชนคลองแม่จันทร์,หนาแน่นน้อย,100.708837,"13.745803,0",,
ชุมชนหลอแหลคลองใหญ่,หนาแน่นปานกลาง,100.700407,13.794445,,
ชุมชนร่มรื่น,หนาแน่นน้อย,100.693747,13.90808,,
ชุมชนสุขสำราญพัฒนา,หนาแน่นน้อย,100.704529,13.915952,,
ชุมชนราษฎร์นิมิตสัมพันธ์,หนาแน่นน้อย,100.727327,13.915069,,
ชุมชนมีนทองพัฒนา,หนาแน่นน้อย,100.727012,13.9058,,
ชุมชนเบญจมพัฒนา,หนาแน่นน้อย,100.691453,13.880762,,
ชุมชนแป้นทองสัมพันธ์,หนาแน่นน้อย,100.710606,13.887492,,
ชุมชนสายสัมพันธ์พัฒนา,หนาแน่นน้อย,100.72716,13.867568,,
ชุมชนพร้อมใจพัฒนา,หนาแน่นน้อย,100.732346,13.901178,,
ชุมชนเฟื่องฟ้าพัฒนา,หนาแน่นน้อย,100.74366,13.901502,,
ชุมชนสามัคคีพัฒนา,หนาแน่นน้อย,100.765397,13.911856,,
ชุมชนพร้อมพัฒนา,หนาแน่นน้อย,100.782707,13.920623,,
ชุมชนรวมน้ำใจพัฒนา,หนาแน่นน้อย,100.76273,13.88762,,
ชุมชนน้ำใสดอกไม้สวย,หนาแน่นน้อย,100.768929,13.886497,,
ชุมชนอาบูพัฒนา,หนาแน่นน้อย,100.768598,13.834846,,
ชุมชนวัดสุขใจ,หนาแน่นน้อย,100.758743,13.873163,,
ชุมชนเจริญพัฒนา (คูคต),หนาแน่นน้อย,100.705071,13.824605,,
ชุมชนประชาสร้างสรรค์,หนาแน่นน้อย,100.752893,13.881761,,
ชุมชนบัวแก้วพัฒนา,หนาแน่นน้อย,100.731695,13.847548,,
ชุมชนวังตาหนวดพัฒนา,หนาแน่นน้อย,100.752672,13.85775,,
ชุมชนดารุสสลามสร้างสรรค์,หนาแน่นน้อย,100.764605,13.916713,,
ชุมชนเกาะขุนเณร,หนาแน่นน้อย,100.7721,13.867247,,
ชุมชนหมู่ 14 พัฒนา,หนาแน่นน้อย,100.777481,13.904627,,
ชุมชนนิมิตใหม่พัฒนา,หนาแน่นน้อย,100.737585,13.900736,,
ชุมชนกมาลุลอิสลาม,หนาแน่นน้อย,100.776951,13.8443,,
ชุมชนมัสยิดฮิดายาตุ้ลอิสลามิยะห์(แสนแสบ),หนาแน่นน้อย,100.763146,13.84433,,
ชุมชนร่วมใจพัฒนา(คลองกีบหมู),หนาแน่นน้อย,100.686013,13.852803,,
ชุมชนห้าพี่น้องพัฒนา,หนาแน่นน้อย,100.797619,13.850942,,
ชุมชนหมู่ 15 พัฒนา,หนาแน่นน้อย,100.777284,13.903739,,
ชุมชนคลองลำกะดาน,หนาแน่นน้อย,100.734851,13.918453,,
ชุมชนพระยาสุเรนทร์,หนาแน่นน้อย,100.690774,13.873394,,
ชุมชนประยงค์แย้ม,หนาแน่นน้อย,100.698034,13.828429,,
ชุมชนบำรุงสุข-บุญมา,หนาแน่นน้อย,100.692176,13.837984,,
ชุมชนบึงไผ่,หนาแน่นน้อย,100.736809,13.843463,,
ชุมชนหมู่บ้านอินเตอร์,หนาแน่นน้อย,100.74948,13.839512,,
ชุมชนหมู่ 8 ร่วมใจพัฒนา,หนาแน่นน้อย,100.763625,13.830802,,
ชุมชนตาหวานพัฒนา,หนาแน่นน้อย,100.747115,13.830782,,
ชุมชนวาสิฎฐี,หนาแน่นน้อย,100.786079,13.851598,,
ชุมชนร่วมใจรักพัฒนา,หนาแน่นน้อย,100.792262,13.848106,,
ชุมชนริมคลอง 1,หนาแน่นน้อย,100.751726,13.862326,,
ชุมชนเจริญสุขพัฒนา,หนาแน่นน้อย,100.775592,13.86436,,
ชุมชนประสานมิตรพัฒนา,หนาแน่นน้อย,"100.7416,",13.872717,,
ชุมชนคลองลำมะเขือขื่น,ไม่ทราบข้อมูล,100.783685,13.894751,,
ชุมชนสุขสันต์พัฒนา,หนาแน่นน้อย,100.72912,13.90685,,
ชุมชนนูรุดดีน,หนาแน่นน้อย,100.77161,13.836808,,
ชุมชนก้าวหน้า,หนาแน่นปานกลาง,100.592042,13.885003,,
ชุมชนศิษย์หลวงปู่ขาววัดหลักสี่,หนาแน่นปานกลาง,100.57899,13.884275,,
ชุมชนมิตรประชาพัฒนา,หนาแน่นปานกลาง,100.574955,13.876557,,
ชุมชนคลองเปรมประชาพัฒนา,หนาแน่นปานกลาง,100.585112,13.895096,,
ชุมชนเทวสุนทร,หนาแน่นปานกลาง,100.563416,13.856296,,
ชุมชนร่วมพัฒนา,หนาแน่นปานกลาง,100.565262,13.859075,,
ชุมชนบางบัว(หมู่บ้านอาทิตย์),หนาแน่นปานกลาง,100.585077,13.861807,,
ชุมชนชายคลองบางบัว,หนาแน่นปานกลาง,100.587277,13.872411,,
ชุมชนเคหะชุมชนท่าทราย,หนาแน่นปานกลาง,100.559047,13.87381,,
ชุมชนเคหะชุมชนบางบัว,หนาแน่นปานกลาง,100.582703,13.860387,,
ชุมชนแจ้งวัฒนะผาสุข,หนาแน่นปานกลาง,100.562002,13.889944,,
ชุมชนตลาดบางเขน,หนาแน่นน้อย,100.564001,13.855519,,
ชุมชนเคหะชุมชนทุ่งสองห้อง 307,หนาแน่นปานกลาง,100.574637,13.902388,,
ชุมชนเคหะชุมชนทุ่งสองห้อง 301,หนาแน่นปานกลาง,100.575218,13.904316,,
ชุมชนเคหะชุมชนทุ่งสองห้อง 304,หนาแน่นปานกลาง,100.578005,13.903257,,
ชุมชนเคหะชุมชนทุ่งสองห้อง 305,หนาแน่นปานกลาง,100.574866,13.903258,,
ชุมชนเคหะชุมชนทุ่งสองห้อง 306,หนาแน่นปานกลาง,100.575883,13.902919,,
ชุมชนเคหะชุมชนทุ่งสองห้อง 308,หนาแน่นปานกลาง,100.577204,13.902637,,
ชุมชนเคหะชุมชนทุ่งสองห้อง 311,หนาแน่นปานกลาง,100.57927,13.903153,,
ชุมชนเคหะชุมชนทุ่งสองห้อง 317,หนาแน่นปานกลาง,100.579382,13.900953,,
ชุมชนเคหะชุมชนทุ่งสองห้อง 320,หนาแน่นปานกลาง,100.582872,13.900309,,
ชุมชนเคหะชุมชนทุ่งสองห้อง 322,หนาแน่นปานกลาง,100.582762,13.899327,,
ชุมชนเคหะชุมชนทุ่งสองห้อง 318,หนาแน่นปานกลาง,100.580525,13.900387,,
ชุมชนเคหะชุมชนทุ่งสองห้อง 316,หนาแน่นปานกลาง,100.581975,13.900792,,
ชุมชนเคหะชุมชนทุ่งสองห้อง 328,หนาแน่นปานกลาง,100.585841,13.899983,,
ชุมชนเคหะชุมชน ทุ่งสองห้อง 302,หนาแน่นปานกลาง,100.57631,13.904035,,
ชุมชนเคหะชุมชน ทุ่งสองห้อง 303,หนาแน่นปานกลาง,100.577498,13.903751,,
ชุมชนเคหะชุมชน ทุ่งสองห้อง 309,หนาแน่นปานกลาง,100.578536,13.902193,,
ชุมชนเคหะชุมชน ทุ่งสองห้อง 310,หนาแน่นปานกลาง,100.577422,13.901668,,
ชุมชนเคหะชุมชน ทุ่งสองห้อง 312,หนาแน่นปานกลาง,100.581193,13.902193,,
ชุมชนเคหะชุมชน ทุ่งสองห้อง 313,หนาแน่นปานกลาง,100.582623,13.901382,,
ชุมชนเคหะชุมชน ทุ่งสองห้อง 315,หนาแน่นปานกลาง,100.580655,13.901352,,
ชุมชนเคหะชุมชน ทุ่งสองห้อง 319,หนาแน่นปานกลาง,100.581625,13.899939,,
ชุมชนเคหะชุมชน ทุ่งสองห้อง 321,หนาแน่นปานกลาง,100.583794,13.899517,,
ชุมชนเคหะชุมชน ทุ่งสองห้อง 323,หนาแน่นปานกลาง,100.583939,13.898657,,
ชุมชนเคหะชุมชน ทุ่งสองห้อง 324,หนาแน่นปานกลาง,100.584865,13.898035,,
ชุมชนเคหะชุมชน ทุ่งสองห้อง 327,หนาแน่นปานกลาง,100.58439,13.899791,,
ชุมชนเคหะชุมชน ทุ่งสองห้อง 329,หนาแน่นปานกลาง,100.585359,13.898897,,
ชุมชนเคหะชุมชน ทุ่งสองห้อง 330,หนาแน่นปานกลาง,100.586695,13.899051,,
ชุมชนไทรงาม,หนาแน่นปานกลาง,100.56022,13.895381,,
ชุมชนเปรมสุขสันต์,หนาแน่นน้อย,100.575264,13.876444,,
ชุมชนหลังแฟลตร่วมพัฒนา,หนาแน่นน้อย,100.569407,13.865808,,
ชุมชนอยู่ดีมีสุขร่วมใจ,หนาแน่นปานกลาง,100.58236,13.888703,,
ชุมชนเมตตาพหลโยธิน 50,หนาแน่นปานกลาง,100.612328,13.887844,,
ชุมชนกรุณาพัฒนา,หนาแน่นปานกลาง,100.61743,13.887097,,
ชุมชนทองอยู่ร่วมใจ,หนาแน่นน้อย,100.613466,13.894004,,
ชุมชนซอยทหารอากาศ,หนาแน่นปานกลาง,100.611735,13.896091,,
ชุมชนร่วมใจสามัคคี,หนาแน่นปานกลาง,100.616873,13.898227,,
ชุมชน กสบ. หมู่ 5,หนาแน่นน้อย,100.620372,13.904215,,
ชุมชนหมู่บ้านเพิ่มสิน 1-2,หนาแน่นน้อย,100.624473,13.900749,,
ชุมชนวัดลุ่มเจริญศรัทธา,หนาแน่นน้อย,100.632039,13.900791,,
ชุมชนหมู่บ้านพัฒนา หมู่ 3,หนาแน่นน้อย,100.644257,13.901392,,
ชุมชนพรพระร่วงพัฒนา,หนาแน่นน้อย,100.661561,13.891577,,
ชุมชนสหชุมชนโครงการ 1,หนาแน่นน้อย,100.667158,13.887642,,
ชุมชนรวมใจสามัคคี (หนองผักชี),หนาแน่นปานกลาง,100.628697,13.886211,,
ชุมชนหมู่บ้านพัฒนา หมู่ 2,หนาแน่นปานกลาง,100.629004,13.907026,,
ชุมชนวัดหนองใหญ่,หนาแน่นปานกลาง,100.676434,13.913853,,
ชุมชนเคหะรัชดา-ออเงิน,หนาแน่นน้อย,100.674962,13.91194,,
ชุมชนรวมมิตรสัมพันธ์ (ซอยเธียรสวน 1),หนาแน่นปานกลาง,100.635282,13.890957,,
ชุมชนหมู่บ้านพัฒนา หมู่ 1,หนาแน่นน้อย,100.635535,13.915576,,
ชุมชนเพิ่มสิน (ซอยถมยาสามัคคี),หนาแน่นน้อย,100.639947,13.894365,,
ชุมชนเธียรสวนพัฒนา 33,หนาแน่นน้อย,100.639234,13.895463,,
ชุมชนการเคหะพรพระร่วงประสิทธิ์,หนาแน่นน้อย,100.660112,13.88542,,
ชุมชนประชานุกูล,หนาแน่นปานกลาง,100.634995,13.91815,,
ชุมชนสายไหมพัฒนา,หนาแน่นน้อย,100.639763,13.931817,,
ชุมชนใจรัก,หนาแน่นน้อย,100.610729,13.894454,,
ชุมชนวัชรพล 3,หนาแน่นน้อย,100.68694,13.88861,,
ชุมชนวัดเทพลีลา,หนาแน่นปานกลาง,100.611426,13.759535,,
ชุมชนทรัพย์สินใหม่,หนาแน่นปานกลาง,100.627819,13.771873,,
ชุมชนไดร์ฟอิน,หนาแน่นมาก,100.617298,13.785129,,
ชุมชนจันทราสุข,หนาแน่นมาก,100.62212,13.787964,,
ชุมชนน้อมเกล้า,หนาแน่นปานกลาง,100.605409,13.763302,,
ชุมชนทรัพย์สินเก่า,หนาแน่นปานกลาง,100.61995,13.763887,,
ชุมชนรามคำแหง 53,หนาแน่นปานกลาง,100.618112,13.778993,,
ชุมชนลาดพร้าว 91,หนาแน่นปานกลาง,100.604827,13.767117,,
ชุมชนสันประเสริฐ,หนาแน่นมาก,100.620141,13.772345,,
ชุมชนสุเหร่าดอนสะแก,หนาแน่นปานกลาง,100.612332,13.777055,,
ชุมชนลาดพร้าว 80 แยก 11,หนาแน่นมาก,100.604246,13.782592,,
ชุมชนเก้าพัฒนา,หนาแน่นปานกลาง,100.601502,13.76477,,
ชุมชนตลาดหลักสี่,หนาแน่นน้อย,100.579695,13.883774,,
ชุมชนอยู่แล้วรวย,หนาแน่นน้อย,100.570844,13.871792,,
ชุมชนคนรักถิ่น,หนาแน่นน้อย,100.571961,13.871125,,
ชุมชนหมู่ 5,หนาแน่นน้อย,100.697655,13.811934,,
ชุมชนศรีบูรพาบ้านแบนชะโด,หนาแน่นน้อย,100.784705,13.876705,,
ชุมชนทุ่งรวงทองพัฒนาแบนชะโด,หนาแน่นน้อย,100.788092,13.880652,,
ชุมชนบ้านลำกระโหลก,หนาแน่นน้อย,100.694639,13.843177,,
ชุมชนเจริญรุ่งเรือง,หนาแน่นปานกลาง,100.602851,13.673519,,
ชุมชนร่มประดู่,หนาแน่นปานกลาง,100.593351,13.666254,,
ชุมชนคลองบางพรานพัฒนา,หนาแน่นน้อย,100.436377,13.684578,,
ชุมชนใต้สะพาน โซน 1,หนาแน่นน้อย,100.501079,13.622867,,
ชุมชนคอลิดีน,หนาแน่นน้อย,100.494088,13.635443,,
ชุมชนมิตรไมตรี,หนาแน่นน้อย,100.495212,13.63712,,
ชุมชนนูรุ้ลฮูดา,หนาแน่นน้อย,100.474471,13.637602,,
ชุมชนกองพันทหารช่างที่ 1 รักษาพระองค์,หนาแน่นน้อย,100.599927,13.849527,,
ชุมชนรุ่งเรือง,หนาแน่นน้อย,100.892659,13.849032,,
ชุมชนแฟลตการรถไฟ(วัดดวงแข),หนาแน่นมาก,100.519394,13.742577,,
ชุมชนเลียบคลอง 13,หนาแน่นน้อย,100.873438,13.862388,,
ชุมชนฉิมพลี,หนาแน่นน้อย,100.446711,13.783095,,
ชุมชนพล.ปตอ.พื้นที่เกียกกาย,หนาแน่นปานกลาง,100.523724,13.799292,,
ชุมชนข้างหมู่บ้านสหกรณ์ (โต๊ะบางอุปถัมป์),หนาแน่นน้อย,100.668655,13.8003,,
ชุมชนซอยรามคำแหง 68,หนาแน่นปานกลาง,100.659302,13.763739,,
ชุมชนหลวงพ่อโบสถ์บน,หนาแน่นมาก,100.504173,13.714605,,
ชุมชนวัดทองเจ้าพัฒนา,หนาแน่นปานกลาง,100.628738,13.713659,,
ชุมชนเกาะกลางพัฒนา,หนาแน่นน้อย,100.882679,13.850548,,
ชุมชนริมคลองราษฎร์เจริญสุข,หนาแน่นปานกลาง,100.349223,13.706901,,
ชุมชนเทพประทาน,หนาแน่นปานกลาง,100.568458,13.916913,,
ชุมชนคลองบางบำหรุ,หนาแน่นมาก,100.486274,13.779536,,
ชุมชนวัดทอง,แออัด,100.489775,13.777903,,
ชุมชนร่วมพัฒนาซอยจรัญฯ 65,หนาแน่นมาก,100.488787,13.783863,,
ชุมชนเติมสุข,หนาแน่นมาก,100.503575,13.793476,,
ชุมชนซอยสุขใจ,แออัด,100.562542,13.774551,,
ชุมชนริมคลองเจ็ดขนัด,หนาแน่นปานกลาง,100.619964,13.710991,,
ชุมชนถนนพระราม 9 พัฒนา,หนาแน่นปานกลาง,100.61399,13.744235,,
ชุมชนร่วมแรงร่วมใจพัฒนา,หนาแน่นน้อย,100.764123,13.865052,,
ชุมชนวังวราเวศน์,หนาแน่นปานกลาง,100.621342,13.848554,,
ชุมชนมิตรปรีดา,หนาแน่นปานกลาง,100.79661,13.847022,,
ชุมชนภราดรพัฒนา,หนาแน่นน้อย,100.791744,13.844742,,
ชุมชนหมู่ 6 พัฒนา,หนาแน่นน้อย,100.786898,13.841627,,
ชุมชนสุกกาทองโครงการ 2,หนาแน่นปานกลาง,100.798761,13.849038,,
ชุมชนบึงพระยา,หนาแน่นน้อย,100.744984,13.816742,,
ชุมชนชายคลองเสนานิคม 2,หนาแน่นน้อย,100.589791,13.842322,,
ชุมชนร่วมรัฐสามัคคี(ดอนกระต่าย),หนาแน่นน้อย,100.498742,13.643625,,
ชุมชนคลองล่าง,หนาแน่นมาก,100.463586,13.765879,,
ชุมชนโรงช้อน 45,หนาแน่นปานกลาง,100.580373,13.850212,,
ชุมชนสวนหลวงก้าวหน้า,หนาแน่นปานกลาง,100.610102,13.712582,,
ชุมชนหมู่บ้านอ่อนนุชทาวน์เฮ้าส์ 1,หนาแน่นปานกลาง,100.645906,13.715519,,
ชุมชนร่วมพัฒนา หมู่ 9 สะพานสูง,หนาแน่นปานกลาง,100.711324,13.770427,,
ชุมชนมุสลิมสัมพันธ์,หนาแน่นน้อย,100.700204,13.761991,,
ชุมชนริมคลองลาดพร้าว,หนาแน่นมาก,100.612081,13.761549,,
ชุมชนไขศรีปราโมชพัฒนา,หนาแน่นมาก,100.636408,13.766644,,
ชุมชนลำสาลีพัฒนา,หนาแน่นปานกลาง,100.646007,13.747952,,
ชุมชนหมู่ 3,หนาแน่นน้อย,100.731237,13.880323,,
ชุมชนหมู่บ้านเกษมสันต์ 1,หนาแน่นปานกลาง,100.613648,13.72303,,
ชุมชนนิติบุคคลอาคารชุด เคหะชุมชนบางนา 2,หนาแน่นปานกลาง,100.641407,13.665093,,
ชุมชนดารุ้ลอิบาดะฮ์,หนาแน่นน้อย,100.479006,13.632796,,
ชุมชนริมคลองภาษีเจริญ บางหว้า หมู่ 15,หนาแน่นปานกลาง,100.431015,113.709247,,
ชุมชนกำแพงทองพัฒนา,หนาแน่นปานกลาง,100.463044,13.729596,,
ชุมชนหมู่ 5 บางแวก,หนาแน่นปานกลาง,100.433556,13.733735,,
ชุมชนหมู่ 4 ชาวบางแวก,หนาแน่นปานกลาง,100.456656,13.739382,,
ชุมชนจันทร์รวมใจ,หนาแน่นปานกลาง,100.436544,13.728594,,
ชุมชนกัลปพฤกษ์ หมู่ 4,หนาแน่นปานกลาง,100.451796,13.712786,,
ชุมชนหมู่ 6 ร่วมใจ,หนาแน่นปานกลาง,100.445419,13.714001,,
ชุมชนเลิศสุขสม,หนาแน่นน้อย,100.430124,13.722926,,
ชุมชนศรีประดู่,หนาแน่นน้อย,100.451175,13.73063,,
ชุมชนจันทรังษี,หนาแน่นปานกลาง,100.439822,13.722613,,
ชุมชนเคหะสุวินทวงศ์,หนาแน่นน้อย,100.794399,13.821023,,
ชุมชนโรงช้อน,หนาแน่นน้อย,100.717244,13.82775,,
ชุมชนเกาะใหญ่พัฒนา,หนาแน่นน้อย,100.777377,13.829233,,
ชุมชนซอยรอดอนันต์ 7,หนาแน่นปานกลาง,100.665917,13.833659,,
ชุมชนซอยคู้บอน 25,หนาแน่นปานกลาง,100.669059,13.85147,,
ชุมชนจินดาบำรุงพัฒนา,หนาแน่นน้อย,100.661611,13.843274,,
ชุมชนธนวัฑฒ์,หนาแน่นปานกลาง,100.380314,13.693366,,
ชุมชนซอยสามัคคี,หนาแน่นน้อย,100.363167,13.718661,,
ชุมชนแยก 9 พัฒนา,หนาแน่นปานกลาง,100.345477,13.719567,,
ชุมชนหมู่ 4 วัดศรีนวล,หนาแน่นน้อย,100.3409,13.666839,,
ชุมชนแย้มผากาสามัคคี หมู่ 13,หนาแน่นน้อย,100.372239,13.676794,,
ชุมชนเพิ่มดีพัฒนา,หนาแน่นปานกลาง,100.370046,13.690984,,
ชุมชนปทุมทิพย์,หนาแน่นปานกลาง,100.529446,13.814394,,
ชุมชนบ้านคลองเก้า,หนาแน่นน้อย,100.793642,13.924433,,
ชุมชนลำสลิดทองพัฒนา,หนาแน่นน้อย,100.87,13.828936,,
ชุมชน ป.เจริญมิตรพัฒนา,หนาแน่นน้อย,100.926368,13.823299,,
ชุมชนแผ่นดินทองดารุสซาลาม(บาหยัน1),หนาแน่นน้อย,100.824614,13.852097,,
ชุมชนสมานมิตรพัฒนา,หนาแน่นปานกลาง,100.60684,13.744425,,
ชุมชนปู่เหลี่ยม,แออัด,100.51778,13.707863,,
ชุมชนหลังวัดไก่เตี้ย,หนาแน่นปานกลาง,100.465451,13.783557,,
ชุมชน หมู่ 12 บ้านสวนบางพรม,หนาแน่นน้อย,100.442728,13.754103,,
ชุมชนวัดทองบางระมาด หมู่ 10 ฉิมพลี,หนาแน่นน้อย,100.441121,13.773688,,
ชุมชนบ้านไทร,หนาแน่นน้อย,100.449058,13.764219,,
ชุมชนบ้านคู่คลอง,หนาแน่นน้อย,100.460514,13.753879,,
ชุมชนวัดหิรัญรูจี,หนาแน่นมาก,100.491651,13.728686,,
ชุมชนอินทามระ 11,หนาแน่นมาก,100.554991,13.78965,,
ชุมชนวัดดวงแข,หนาแน่นมาก,100.519238,13.741364,,
ชุมชนทวีปัญญารักษ์,หนาแน่นน้อย,100.757751,13.722102,,
ชุมชนสองฝั่งคลอง,หนาแน่นน้อย,100.767777,13.736425,,
ชุมชนริมคลองลาดบัวขาว,หนาแน่นน้อย,100.717204,13.770693,,
ชุมชนมัจฉา,หนาแน่นมาก,100.646792,13.761651,,
ชุมชนประชาร่วมใจ (ตลาดสหกรณ์),หนาแน่นมาก,100.651758,13.753854,,
ชุมชนศาลาครืนรวมใจ,หนาแน่นปานกลาง,100.46073,13.706466,,
ชุมชนเทพประทาน,หนาแน่นปานกลาง,100.558691,13.722965,,
ชุมชนหมู่ 3 ร่วมใจพัฒนา,หนาแน่นน้อย,100.694564,13.794807,,
ชุมชนคลองลำนุ่น,หนาแน่นน้อย,100.6785416,13.8192338,,
"ชุมชนซอยรามอินทรา 83,85",หนาแน่นน้อย,100.669876,13.836366,,
ชุมชนสรรพาวุธนิเวศน์,หนาแน่นปานกลาง,100.528116,13.785962,,
ชุมชนหมู่บ้านอินทามระซอย 51,แออัด,100.568203,13.783932,,
ชุมชนสวัสดี,หนาแน่นมาก,100.558131,13.772018,,
ชุมชนมหาสิน,หนาแน่นปานกลาง,100.619535,13.683058,,
ชุมชนทหารผ่านศึก,หนาแน่นน้อย,100.609685,13.868759,,
ชุมชนโสรัจ,หนาแน่นปานกลาง,100.602982,13.88832,,
ชุมชนร่วมใจพัฒนากลาง,หนาแน่นปานกลาง,100.596145,13.886164,,
ชุมชนกูบแดงร่วมใจพัฒนา,หนาแน่นปานกลาง,100.586646,13.858822,,
ชุมชนหลักสี่พัฒนา 99,หนาแน่นปานกลาง,100.583099,13.889895,,
ชุมชนบางบัวเชิงสะพานไม้ 1,หนาแน่นปานกลาง,100.585694,13.860361,,
ชุมชนบางบัวร่วมใจพัฒนา(เชิงสะพานไม้ 2 ),หนาแน่นปานกลาง,100.58375,13.865893,,
ชุมชนสตรีเหล็กพัฒนา,หนาแน่นน้อย,100.590421,13.904948,,
ชุมชนร่วมใจรัก(คลองเปรมประชากร),หนาแน่นปานกลาง,100.606517,13.944557,,
ชุมชนกาญจนา,หนาแน่นน้อย,100.702972,13.835898,,
ชุมชนรุ่งเรือง 1,หนาแน่นน้อย,100.708139,13.844217,,
ชุมชนอาสาพัฒนา,หนาแน่นน้อย,100.729307,13.878393,,
ชุมชนเคหะคลองเก้า,หนาแน่นน้อย,100.792209,13.909057,,
ชุมชนบางระแนะน้อย,หนาแน่นปานกลาง,100.461421,13.677686,,
ชุมชนศรีสุข-ญาดา ร่วมพัฒนา,หนาแน่นน้อย,100.594483,13.948379,,
ชุมชนตรอกต้นโพธิ์,หนาแน่นปานกลาง,100.517581,13.779744,,
ชุมชนหมู่บ้านพัฒนาวัดอินทราวาส 2,หนาแน่นน้อย,100.433287,13.758268,,
ชุมชนโค้งเอส,หนาแน่นน้อย,100.44023,13.754001,,
ชุมชนหมู่ 8 วัดทองบางเชือกหนัง,หนาแน่นมาก,100.448659,13.74111,,
ชุมชนหมู่ 5 บางพรม,หนาแน่นน้อย,100.443363,13.747155,,
ชุมชนทรัพย์สินพัฒนา,หนาแน่นน้อย,100.443523,13.773734,,
ชุมชนราชพฤกษ์,หนาแน่นน้อย,100.44681,13.75388,,
ชุมชนเกษตรพัฒนาบึงพระยาสุเรนทร์,หนาแน่นน้อย,100.663473,13.868369,,
ชุมชนฤทธิ์พัฒนา,หนาแน่นปานกลาง,100.388905,13.717096,,
ชุมชนซอยรถไฟวรพงษ์,หนาแน่นมาก,100.494725,13.777315,,
ชุมชนบ้านทับยาว,หนาแน่นน้อย,100.838127,13.731786,,
ชุมชนริมคลองลำปลาทิว,หนาแน่นน้อย,100.806656,13.763574,,
ชุมชนรักสามัคคี,หนาแน่นน้อย,100.722846,13.75597,,
ชุมชนรุ่งเรืองพัฒนา,หนาแน่นน้อย,100.713765,13.727749,,
ชุมชนลาดบัวขาวพัฒนา,หนาแน่นน้อย,100.710923,13.756825,,
ชุมชนหมู่ 4 คลองสามประเวศ,หนาแน่นน้อย,100.748278,13.770399,,
ชุมชนซอยลาดปลาเค้า 24,หนาแน่นปานกลาง,100.600796,13.834917,,
ชุมชนคลองพลับพลา,หนาแน่นปานกลาง,100.599721,13.757325,,
ชุมชนร่วมสามัคคี,หนาแน่นปานกลาง,100.602087,13.763966,,
ชุมชนมิตรไมตรี,หนาแน่นปานกลาง,100.614238,13.720398,,
ชุมชนร่วมใจ,หนาแน่นปานกลาง,100.640194,13.714704,,
ชุมชนสวนนกพัฒนา,หนาแน่นน้อย,100.704961,13.763524,,
ชุมชนฮิดายะห์พัฒนา,หนาแน่นน้อย,100.672204,13.776899,,
ชุมชนเล่งบ้วยเอี๊ยะ,หนาแน่นปานกลาง,100.510012,13.740342,,
ชุมชนซอย 99,หนาแน่นน้อย,100.344598,13.66939,,
ชุมชนบุญส่ง,หนาแน่นน้อย,100.358956,13.725468,,
ชุมชนชายคลอง,หนาแน่นน้อย,100.355277,13.725033,,
ชุมชนแผ่นดินทองบ้านเกาะพัฒนา,หนาแน่นน้อย,100.885382,13.875257,,
ชุมชนดำรงสันติธรรม,หนาแน่นน้อย,100.846885,13.857265,,
ชุมชนผดุงพันธ์พัฒนา,หนาแน่นน้อย,100.869449,13.856509,,
ชุมชนซอยพัชราภา,หนาแน่นปานกลาง,100.586964,13.889167,,
ชุมชนเกษตรก้าวหน้าลำรางหนองกง,หนาแน่นน้อย,100.675832,13.864468,,
ชุมชนปากคลองสองห้อง,หนาแน่นปานกลาง,100.680439,13.723769,,
ชุมชนคลองมะขามเทศพัฒนา,หนาแน่นน้อย,100.676913,13.700902,,
ชุมชนก้าวใหม่พัฒนาบึงปรง,หนาแน่นน้อย,100.897009,13.896047,,
ชุมชนจระเข้ขบเกาะล่าง,หนาแน่นน้อย,100.702216,13.71547,,
ชุมชนคลองลัดภาชี,หนาแน่นปานกลาง,100.443831,13.721217,,
ชุมชนหมู่ 5 ลำต้อยติ่ง,หนาแน่นน้อย,100.884067,13.792038,,
ชุมชนก้าวไกลพัฒนา,หนาแน่นน้อย,100.888121,13.89328,,
ชุมชนคลองรางจาก,หนาแน่นน้อย,100.508103,13.633124,,
ชุมชนมติมิตร,หนาแน่นน้อย,100.501515,13.653738,,
ชุมชนสยามคอนโด 2,หนาแน่นปานกลาง,100.62594,13.673264,,
ชุมชนหมู่ที่ 8 หนองจอกกงลิบฮัวเคียว,หนาแน่นน้อย,100.86661,13.857186,,
ชุมชนวัดใหม่กระทุ่มล้ม,หนาแน่นน้อย,100.869816,13.780853,,
ชุมชนประชาพัฒนา,หนาแน่นน้อย,100.729377,13.817682,,
ชุมชนแก้วฟ้าชัยมงคล,หนาแน่นน้อย,100.65225,13.782306,,
ชุมชนวัดดอนเมือง(ด้านเหนือ),หนาแน่นปานกลาง,100.601517,13.923151,,
ชุมชนศิริเกษมรวมใจ 50,หนาแน่นปานกลาง,100.36711,13.737178,,
ชุมชนรักษ์พัฒนา,หนาแน่นน้อย,100.379077,13.736152,,
ชุมชนจรัสเมือง,หนาแน่นปานกลาง,100.519294,13.743623,,
ชุมชนอุมาร์ 2,หนาแน่นน้อย,100.814054,13.924126,,
ชุมชนอัลฟาลาห์,หนาแน่นน้อย,100.792614,13.903782,,
ชุมชนสุดซอยสีน้ำเงิน,หนาแน่นมาก,100.52496,13.818471,,
ชุมชนสถาพร,หนาแน่นปานกลาง,100.510586,13.666788,,
ชุมชนพัฒนาลำต้นไทร,หนาแน่นน้อย,100.838772,13.834572,,
ชุมชนร่มไทรงามพัฒนา,หนาแน่นปานกลาง,100.592829,13.910824,,
ชุมชนคลองหนึ่ง,หนาแน่นน้อย,100.725321,13.734901,,
ชุมชนร่วมใจพัฒนา,หนาแน่นปานกลาง,100.597836,13.825558,,
ชุมชนหมู่บ้านพัฒนาวัดอินทราวาส 1,หนาแน่นน้อย,100.429538,13.758404,,
ชุมชนกองขยะหนองแขม,หนาแน่นน้อย,100.361177,13.730987,,
ชุมชนบุญมาก,หนาแน่นปานกลาง,100.590427,13.922454,,
ชุมชนหลอแหลสายกลาง,หนาแน่นน้อย,100.693255,13.768206,,
ชุมชนร่วมใจพัฒนา,หนาแน่นปานกลาง,100.625594,13.808489,,
ชุมชนซอยเรืองสอน 1,หนาแน่นน้อย,100.397448,13.68653,,
ชุมชนเกษตรรุ่งเรือง,หนาแน่นน้อย,100.400087,13.693555,,
ชุมชนคลองปักหลักพัฒนา,หนาแน่นน้อย,100.698199,13.682163,,
ชุมชนกระทุ่มแจ้พัฒนา,หนาแน่นน้อย,100.686226,13.68335,,
ชุมชนคลองบ้านม้า หมู่ 10,หนาแน่นปานกลาง,100.668161,13.769078,,
ชุมชนบ้านมั่นคงสวนพลู,หนาแน่นมาก,100.5446,13.71707,,
ชุมชนคลองตาสอน,หนาแน่นน้อย,100.852954,13.723334,,
ชุมชนซิรอตุ้ลญันนะห์,หนาแน่นน้อย,100.853854,13.702763,,
ชุมชนสุเหร่่าแสนแสบ,หนาแน่นมาก,100.749422,13.828277,,
,ไม่ทราบข้อมูล,100.659998,13.837494,,